UID,Latitude,Longitude,Name,City,St,Zip,Cat,Elev,Comments,Pin,Height
100749,34.983726000000004,-86.851996,Low Clearance,Ardmore,AL,35739,LC11,,Height not marked but it is believed to be 11 ft (136),low_11_0_pushpin,
100750,34.992213,-86.84716800000001,Low Clearance,Ardmore,AL,38449,LC13,,13 - 6 height clearance,low_13_6_pushpin,
100758,34.797197,-86.970228,Low Clearance,Athens,AL,35611,LC10,,10 - 0 height clearance (136),low_10_0_pushpin,
100770,34.018626,-86.085077,Low Clearance,Attalla,AL,35954,LC13,,13 - 7 height clearance,low_13_7_pushpin,
100771,34.02112,-86.08751,Low Clearance,Attalla,AL,35954,LC13,,13 - 8 height clearance,low_13_8_pushpin,
100772,34.021138,-86.087532,Low Clearance,Attalla,AL,35954,LC14,,14 - 1 height clearance,low_14_1_pushpin,
100783,33.404140999999996,-86.94768499999999,Low Clearance,Bessemer,AL,35020,LC10,,10 - 0 height clearance (136),low_10_0_pushpin,
100803,33.498408000000005,-86.818729,Low Clearance,Birmingham,AL,35233,LC13,,13 - 8 height clearance,low_13_8_pushpin,
100804,33.526227,-86.791145,Low Clearance,Birmingham,AL,35222,LC13,,13 - 9 height clearance,low_13_9_pushpin,
100805,33.533206,-86.755713,Low Clearance,Birmingham,AL,35212,LC13,,13 - 7 height clearance,low_13_7_pushpin,
100806,33.536004,-86.807014,Low Clearance,Birmingham,AL,35234,LC13,,13 - 7 height clearance,low_13_7_pushpin,
100807,33.536026,-86.807005,Low Clearance,Birmingham,AL,35234,LC13,,13 - 7 height clearance,low_13_7_pushpin,
100808,33.537586,-86.752312,Low Clearance,Birmingham,AL,35212,LC13,,13 - 3 height clearance (136),low_13_3_pushpin,
100828,33.496584000000006,-86.839576,Low Clearance,Birminghan,AL,35211,LC13,,13 - 6  height clearance,low_13_6_pushpin,
100829,33.509161,-86.813139,Low Clearance,Birminghan,AL,35233,LC13,,13 - 8  height clearance,low_13_8_pushpin,
100830,33.511790999999995,-86.807662,Low Clearance,Birminghan,AL,35203,LC12,,12 - 10 height clearance (136),low_12_10_pushpin,
100831,33.512508000000004,-86.806203,Low Clearance,Birminghan,AL,35203,LC14,,14 - 1 height clearance,low_14_1_pushpin,
100832,33.513086,-86.80476,Low Clearance,Birminghan,AL,35234,LC13,,13 - 4 height clearance (136),low_13_4_pushpin,
100833,33.526196,-86.79114799999999,Low Clearance,Birminghan,AL,35222,LC13,,13 - 9 height clearance,low_13_9_pushpin,
100834,33.537828999999995,-86.752206,Low Clearance,Birminghan,AL,35212,LC13,,13 - 3 height clearance (136),low_13_3_pushpin,
100835,33.538064,-86.751561,Low Clearance,Birminghan,AL,35212,LC13,,13 - 3 height clearance (136),low_13_3_pushpin,
100859,34.938072,-85.747757,Low Clearance,Bridgeport,AL,35740,LC8,,8 - 1 height clearance (136),low_8_1_pushpin,
100860,34.947323,-85.71284200000001,Low Clearance,Bridgeport,AL,35740,LC10,,10 - 6 height clearance (136),low_10_6_pushpin,
100887,33.346979,-86.63934300000001,Low Clearance,Chelsea,AL,35043,LC13,,13 - 6 height clearance,low_13_6_pushpin,
100892,33.276052,-86.350246,Low Clearance,Childersburg,AL,35044,LC8,,8 - 0 height clearance (136),low_8_0_pushpin,
100893,33.278743,-86.352961,Low Clearance,Childersburg,AL,35044,LC14,,14 - 0 height clearance,low_14_0_pushpin,
100913,33.784581,-87.20787299999999,Low Clearance,Cordova,AL,35550,LC8,,8 - 0 height clearance (136),low_8_0_pushpin,
100939,34.145602000000004,-86.83074,Low Clearance,Cullman,AL,35055,LC9,,9 - 8 height clearance (136),low_9_8_pushpin,
100940,34.155072,-86.832798,Low Clearance,Cullman,AL,35055,LC8,,8 - 0 height clearance (136),low_8_0_pushpin,
100958,34.611655999999996,-86.988661,Low Clearance,Decatur,AL,35601,LC10,,10 - 8 height clearance (136),low_10_8_pushpin,
100969,32.52095,-87.828942,Low Clearance,Demopolis,AL,36732,LC7,,7 - 0 height clearance (136),low_7_0_pushpin,
100973,33.73207,-87.103166,Low Clearance,Dora,AL,35062,LC8,,8 - 0 height clearance (136),low_8_0_pushpin,
101010,31.310709000000003,-85.850894,Low Clearance,Enterprise,AL,36330,LC14,,14 - 0 height clearance,low_14_0_pushpin,
101037,34.85102,-87.5705,Low Clearance,Florence,AL,35630,LC12,,bridge replaced with new one next to it - 12 - 1 height clearance (136),low_12_1_pushpin,
101046,32.549556,-87.830642,Low Clearance,Forkland,AL,36740,LC8,,8 - 0 height clearance (136),low_8_0_pushpin,
101055,34.009452,-85.993284,Low Clearance,Gadsden,AL,35903,LC14,,14 - 6 height clearance,low_14_6_pushpin,
101068,33.323592,-87.910262,Low Clearance,Gordo,AL,35466,LC13,,13 - 6 height clearance,low_13_6_pushpin,
101074,31.82954,-86.6279,Low Clearance,Greenville,AL,36037,LC10,,10 - 6 height clearance (136),low_10_6_pushpin,
101091,34.207874,-87.631328,Low Clearance,Haleyville,AL,35565,LC15,,15 - 2 height clearance,low_15_2_pushpin,
101092,34.233788,-87.633696,Low Clearance,Haleyville,AL,35565,LC15,,16 - 3 height clearance,low_16_3_pushpin,
101106,34.01252,-86.74760400000001,Low Clearance,Hanceville,AL,35077,LC11,,11 - 0 height clearance (136),low_11_0_pushpin,
101116,34.398196999999996,-86.912842,Low Clearance,Hartselle,AL,35640,LC10,,10 height clearance (136),low_10_0_pushpin,
101118,33.88971,-86.75992,Low Clearance,Hayden,AL,35079,LC10,,"Had it as 10-1 but reported as higher than 13-6 and no signage, 10 - 1 height clearance (136)",low_10_1_pushpin,
101119,33.925619,-86.77598,Low Clearance,Hayden,AL,35079,LC10,,10 - 0 height clearance (136),low_10_0_pushpin,
101181,33.544714,-86.535829,Low Clearance,Leeds,AL,35094,LC8,,8 - 0 height clearance (136),low_8_0_pushpin,
101182,33.548425,-86.543814,Low Clearance,Leeds,AL,35094,LC14,,14 - 0 height clearance,low_14_0_pushpin,
101183,33.555053,-86.57206,Low Clearance,Leeds,AL,35094,LC15,,15 height clearance,low_15_0_pushpin,
101189,33.60427,-86.1945,Low Clearance,Lincoln,AL,35096,LC15,,15 - 3 height clearance in center with 13 - 2 side angle bars,low_15_3_pushpin,
101197,32.583084,-88.184186,Low Clearance,Livingston,AL,35470,LC15,,15 - 7 height clearance,low_15_7_pushpin,
101239,30.693051,-88.03097,Low Clearance,Mobile,AL,36603,LC12,,12 - 0 height clearance (136),low_12_0_pushpin,
101240,30.695959999999996,-88.11267,Low Clearance,Mobile,AL,36603,LC14,,14 - 0 height clearance,low_14_0_pushpin,
101268,32.358886,-86.33506700000001,Low Clearance,Montgomery,AL,36108,LC15,,16 - 0 height clearance,low_16_0_pushpin,
101283,33.714898,-86.73905,Low Clearance,Morris,AL,35116,LC14,,14 - 3 height clearance,low_14_3_pushpin,
101284,33.757931,-86.75313,Low Clearance,Morris,AL,35116,LC9,,9 - 6 height clearance (136),low_9_6_pushpin,
101296,34.087759999999996,-87.601236,Low Clearance,Natural Bridge,AL,35577,LC14,,14 - 10 height clearance,low_14_10_pushpin,
101309,33.971021,-86.518348,Low Clearance,Oneonta,AL,35121,LC10,,10 - 0 height clearance (136),low_10_0_pushpin,
101310,34.00742,-86.44881,Low Clearance,Oneonta,AL,35121,LC8,,8 - 6 height clearance (136),low_8_6_pushpin,
101315,32.62673,-85.3714,Low Clearance,Opelika,AL,36804,LC14,,14 - 0 height clearance,low_14_0_pushpin,
101316,32.643359999999994,-85.386084,Low Clearance,Opelika,AL,36801,LC10,,10 - 1 height clearance (136),low_10_1_pushpin,
101317,32.654214,-85.429663,Low Clearance,Opelika,AL,36801,LC8,,8 - 0 height clearance (136),low_8_0_pushpin,
101339,31.47304,-85.659371,Low Clearance,Ozark,AL,36360,LC8,,8 - 0 height clearance (136),low_8_0_pushpin,
101349,33.592368,-86.398341,Low Clearance,Pell City,AL,35128,LC8,,8 - 0 height clearance (136),low_8_0_pushpin,
101356,32.477308,-84.998559,Low Clearance,Phenix City,AL,36867,LC8,,8 - 0 height clearance (136),low_8_0_pushpin,
101357,32.477348,-84.99685799999999,Low Clearance,Phenix City,AL,36867,LC8,,8 - 0 height clearance (136),low_8_0_pushpin,
101379,33.603035,-86.195588,Low Clearance,Riverside,AL,35135,LC14,,14 - 0 height clearance,low_14_0_pushpin,
101400,34.594856,-86.057277,Low Clearance,Scottsboro,AL,35769,LC15,,16 - 1 height clearance,low_16_1_pushpin,
101401,32.29444,-85.17875,Low Clearance,Seale,AL,36875,LC13,,13 - 1 height clearance (136),low_13_1_pushpin,
101420,30.66657,-87.91688,Low Clearance,Spanish Fort,AL,36527,LC13,,13 - 6 height clearance,low_13_6_pushpin,
101421,30.6781,-87.98661,Low Clearance,Spanish Fort,AL,36527,LC13,,13 - 6 height clearance,low_13_6_pushpin,
101461,33.22703,-87.508562,Low Clearance,Tuscaloosa,AL,35404,LC13,,13 - 8 height clearance,low_13_8_pushpin,
101473,34.713705,-87.63481800000001,Low Clearance,Tuscumbia,AL,35674,LC15,,16 - 0 height clearance,low_16_0_pushpin,
101488,33.37149,-86.40262,Low Clearance,Vincent,AL,35178,LC10,,10 - 10 height clearance (136),low_10_10_pushpin,
101489,33.384689,-86.41194300000001,Low Clearance,Vincent,AL,35178,LC14,,14 - 3 height clearance,low_14_3_pushpin,
101491,33.78454,-86.74916,Low Clearance,Warrior,AL,35180,LC8,,8 - 6 height clearance (136),low_8_6_pushpin,
101500,32.538674,-86.20715799999999,Low Clearance,Wetumpka,AL,36092,LC12,,12 - 6 height clearance (136),low_12_6_pushpin,
101524,35.763795,-91.535852,Low Clearance,Batesville,AR,72501,LC12,,12 - 6 height clearance (136),low_12_6_pushpin,
101566,33.578179999999996,-92.8261,Low Clearance,Camden,AR,71701,LC10,,10 - 1 height clearance (136),low_10_1_pushpin,
101567,33.58788,-92.82704,Low Clearance,Camden,AR,71701,LC13,,13 - 10 height clearance,low_13_10_pushpin,
101568,33.606559999999995,-92.82024,Low Clearance,Camden,AR,71701,LC13,,13 - 1 height clearance (136),low_13_1_pushpin,
101575,34.688809,-91.316231,Low Clearance,Clarendon,AR,72029,LC12,,12 - 1 height clearance (136),low_12_1_pushpin,
101604,35.268240000000006,-90.47207,Low Clearance,Earle,AR,72331,LC9,,9 - 0 height clearance (136),low_9_0_pushpin,
101605,35.269459999999995,-90.46566999999999,Low Clearance,Earle,AR,72331,LC12,,12 - 1 height clearance (136),low_12_1_pushpin,
101643,33.610766,-93.815338,Low Clearance,Fulton,AR,71838,LC8,,8 - 0 height clearance (136),low_8_0_pushpin,
101644,33.613199,-93.812451,Low Clearance,Fulton,AR,71838,LC13,,13 - 8 height clearance,low_13_8_pushpin,
101646,36.490386,-93.932441,Low Clearance,Garfield,AR,72732,LC13,,13 - 10 height clearance,low_13_10_pushpin,
101647,33.369334,-93.717736,Low Clearance,Garland,AR,71839,LC13,,13 - 6 height clearance,low_13_6_pushpin,
101659,33.92202,-93.15095,Low Clearance,Gurdon,AR,71743,LC10,,10 - 6 height clearance (136),low_10_6_pushpin,
101678,34.49264,-93.04841,Low Clearance,Hot Springs,AR,71901,LC11,,11 - 6 height clearance (136),low_11_6_pushpin,
101711,34.740659,-92.295208,Low Clearance,Little Rock,AR,72201,LC11,,11 - 4 height clearance (136),low_11_4_pushpin,
101712,34.74192,-92.25778000000001,Low Clearance,Little Rock,AR,72201,LC12,,12 - 6 height clearance (136),low_12_6_pushpin,
101713,34.741997,-92.252767,Low Clearance,Little Rock,AR,72201,LC13,,13 - 6 height clearance,low_13_6_pushpin,
101714,34.745059999999995,-92.30071,Low Clearance,Little Rock,AR,72201,LC13,,13 - 5 height clearance (136),low_13_5_pushpin,
101715,34.749817,-92.27494300000001,Low Clearance,Little Rock,AR,72201,LC10,,10 - 1 height clearance (136),low_10_1_pushpin,
101757,35.153681,-92.75045,Low Clearance,Morrilton,AR,72110,LC9,,9 - 4 height clearance (136),low_9_4_pushpin,
101758,35.154771999999994,-92.753856,Low Clearance,Morrilton,AR,72110,LC13,,13 - 10 height clearance,low_13_10_pushpin,
101761,35.885512,-91.89061600000001,Low Clearance,Mountain View,AR,72560,LC13,,13 - 5 height clearance (136),low_13_5_pushpin,
101776,35.587339,-91.321836,Low Clearance,Newport,AR,72112,LC10,,10 - 6 height clearance (136),low_10_6_pushpin,
101783,34.758179999999996,-92.2792,Low Clearance,North Little Rock,AR,72114,LC12,,12 - 6 height clearance (136),low_12_6_pushpin,
101784,34.76853,-92.19941999999999,Low Clearance,North Little Rock,AR,72114,LC13,,13 - 10 height clearance,low_13_10_pushpin,
101810,35.264309999999995,-90.55385,Low Clearance,Parkin,AR,72373,LC9,,9 - 8 height clearance (136),low_9_8_pushpin,
101811,35.264509999999994,-90.55601,Low Clearance,Parkin,AR,72373,LC12,,12 - 1 height clearance (136),low_12_1_pushpin,
101812,35.264759999999995,-90.55869,Low Clearance,Parkin,AR,72373,LC11,,11 - 8 height clearance (136),low_11_8_pushpin,
101820,35.251909999999995,-93.04821,Low Clearance,Pottsville,AR,72858,LC11,,11 - 6 height clearance (136),low_11_6_pushpin,
101882,33.42096,-94.03011,Low Clearance,Texarkana,AR,71854,LC14,,14 - 1 height clearance,low_14_1_pushpin,
101883,33.47631,-93.97100999999999,Low Clearance,Texarkana,AR,71854,LC10,,10 - 10 height clearance (136),low_10_10_pushpin,
101893,35.6589,-90.49835,Low Clearance,Trumann,AR,72472,LC9,,9 - 5 height clearance (136),low_9_5_pushpin,
101894,35.67139,-90.50584,Low Clearance,Trumann,AR,72472,LC10,,10 - 5 height clearance (136),low_10_5_pushpin,
101895,35.6783,-90.51006,Low Clearance,Trumann,AR,72472,LC12,,12 - 5 height clearance (136),low_12_5_pushpin,
101897,35.36538,-90.25437,Low Clearance,Turrell,AR,72384,LC11,,11 - 6 height clearance (136),low_11_6_pushpin,
101899,35.43288,-94.35502,Low Clearance,Van Buren,AR,72956,LC12,,12 - 8 height clearance (136),low_12_8_pushpin,
101900,35.43618,-94.35477,Low Clearance,Van Buren,AR,72956,LC10,,10 - 0 height clearance (136),low_10_0_pushpin,
101901,35.43653,-94.35378,Low Clearance,Van Buren,AR,72956,LC10,,10 - 10 height clearance (136),low_10_10_pushpin,
101961,31.441105,-109.91331699999999,Low Clearance,Bisbee,AZ,85603,LC13,,13 - 5 height clearance (136),low_13_5_pushpin,
101986,32.879756,-111.762052,Low Clearance,Casa Grande,AZ,85122,LC13,,eastbound 13 - 4 height clearance (136),low_13_4_pushpin,
102100,33.401705,-110.791799,Low Clearance,Globe,AZ,85501,LC12,,12 - 6 height clearance (136),low_12_6_pushpin,
102150,34.31026,-112.56863,Low Clearance,Kirkland,AZ,86332,LC10,,10 - 5 height clearance (136),low_10_5_pushpin,
102268,33.392751000000004,-111.9686,Low Clearance,Phoenix,AZ,85042,LC15,,15 - 1 height clearance,low_15_1_pushpin,
102269,33.427305,-112.04778300000001,Low Clearance,Phoenix,AZ,85034,LC14,,14 - 0 height clearance,low_14_0_pushpin,
102270,33.44399,-112.09577,Low Clearance,Phoenix,AZ,85034,LC12,,12 - 0 height clearance (136),low_12_0_pushpin,
102271,33.444137,-112.073771,Low Clearance,Phoenix,AZ,85034,LC14,,14 - 0 height clearance,low_14_0_pushpin,
102272,33.445077000000005,-112.074904,Low Clearance,Phoenix,AZ,85034,LC15,,15 - 1 height clearance,low_15_1_pushpin,
102273,33.58193,-112.11689799999999,Low Clearance,Phoenix,AZ,85029,LC14,,"14 - 9 height clearance on west side, 15-1 on east side",low_14_9_pushpin,
102334,34.92838,-112.81603,Low Clearance,Prescott,AZ,86305,LC13,,13 - 6 height clearance,low_13_6_pushpin,
102362,33.619347999999995,-110.92183700000001,Low Clearance,Roosevelt,AZ,85545,LC12,,12 - 2 height clearance (136),low_12_0_pushpin,
102394,34.764196999999996,-111.656651,Low Clearance,Sedona,AZ,86351,LC13,,13 - 1 height clearance (136),low_13_1_pushpin,
102402,34.311771,-110.24871599999999,Low Clearance,Show Low,AZ,85901,LC11,,11 - 2 height clearance (136),low_11_2_pushpin,
102417,33.304629999999996,-111.08261999999999,Low Clearance,Superior,AZ,85173,LC13,,13 - 6 height clearance,low_13_6_pushpin,
102426,33.410998,-111.909154,Low Clearance,Tempe,AZ,85281,LC15,,15 - 6 height clearance,low_15_6_pushpin,
102427,33.411024,-111.93983999999999,Low Clearance,Tempe,AZ,85281,LC15,,15 - 2 height clearance,low_15_2_pushpin,
102464,32.10654,-110.99315,Low Clearance,Tucson,AZ,85746,LC15,,15 - 1 height clearance,low_15_1_pushpin,
102465,32.206783,-110.97960800000001,Low Clearance,Tucson,AZ,85746,LC13,,13 - 6 height clearance,low_13_6_pushpin,
102466,32.225235999999995,-110.96866399999999,Low Clearance,Tucson,AZ,85746,LC10,,10 - 10 height clearance (136),low_10_10_pushpin,
102467,32.22707,-110.9717,Low Clearance,Tucson,AZ,85746,LC13,,13 - 6 height clearance,low_13_6_pushpin,
102468,32.235827,-110.98155,Low Clearance,Tucson,AZ,85746,LC13,,13 - 10 height clearance,low_13_10_pushpin,
102469,32.25026,-110.99168999999999,Low Clearance,Tucson,AZ,85746,LC14,,14 - 0 height clearance,low_14_0_pushpin,
102534,34.97582,-110.5255,Low Clearance,Winslow,AZ,86047,LC14,,14 - 0 height clearance,low_14_0_pushpin,
103622,34.105489,-118.80948000000001,Low Clearance,Agoura Hills,CA,91301,LC14,,14 - 0 height clearance,low_14_0_pushpin,
103644,40.4406,-122.29964,Low Clearance,Anderson,CA,96007,LC11,,11 - 6 height clearance (136),low_11_6_pushpin,
103665,35.50098,-120.66242,Low Clearance,Atascadero,CA,93422,LC13,,13 - 2 height clearance (136),low_13_2_pushpin,
103672,38.90384,-121.0662,Low Clearance,Auburn,CA,95603,LC13,,13 - 7 height clearance,low_13_7_pushpin,
103673,38.92083,-121.0928,Low Clearance,Auburn,CA,95603,LC11,,11 - 3 height clearance (136),low_11_3_pushpin,
103773,37.84908,-122.29563,Low Clearance,Berkeley,CA,94710,LC15,,15 - 1 height clearance,low_15_1_pushpin,
103822,34.172304,-118.301973,Low Clearance,Burbank,CA,91502,LC14,,14 - 6 height clearance,low_14_6_pushpin,
103844,35.28751,-118.62700000000001,Low Clearance,Caliente,CA,93518,LC13,,13 - 11 height clearance,low_13_11_pushpin,
103855,37.292809999999996,-121.93749,Low Clearance,Campbell,CA,95008,LC15,,15 - 2 height clearance,low_15_2_pushpin,
103856,37.29453,-121.93861000000001,Low Clearance,Campbell,CA,95008,LC15,,15 - 1 height clearance,low_15_1_pushpin,
103920,34.204127,-117.676776,Low Clearance,Claremont,CA,91711,LC12,,12 - 0 height clearance (136),low_12_0_pushpin,
103950,34.00991,-118.15852,Low Clearance,Commerce,CA,90040,LC15,,15 - 0 height clearance,low_15_0_pushpin,
103956,37.964220000000005,-122.0308,Low Clearance,Concord,CA,94518,LC14,,14 - 4 height clearance,low_14_4_pushpin,
103998,38.29233,-121.63058000000001,Low Clearance,Courtland,CA,95615,LC13,,13 - 0 height clearance (136),low_13_0_pushpin,
104014,38.54139,-121.73958999999999,Low Clearance,Davis,CA,95616,LC13,,13 - 6 height clearance,low_13_6_pushpin,
104075,34.06123,-118.0126,Low Clearance,El Monte,CA,91732,LC15,,15 - 0 height clearance,low_15_0_pushpin,
104076,34.0633,-118.01562,Low Clearance,El Monte,CA,91732,LC13,,13 - 10 height clearance,low_13_10_pushpin,
104193,37.48768,-121.93189,Low Clearance,Fremont,CA,94536,LC15,,15 - 0 height clearance,low_15_0_pushpin,
104194,37.55969,-121.95565,Low Clearance,Fremont,CA,94536,LC14,,14 - 0 height clearance,low_14_0_pushpin,
104195,37.55985,-121.95566000000001,Low Clearance,Fremont,CA,94536,LC15,,15 - 0 height clearance,low_15_0_pushpin,
104217,36.734389,-119.79434499999999,Low Clearance,Fresno,CA,93706,LC13,,13 - 9 height clearance,low_13_9_pushpin,
104218,36.77766,-119.8011,Low Clearance,Fresno,CA,93706,LC13,,13 - 0 height clearance (136),low_13_0_pushpin,
104219,36.781490000000005,-119.80411000000001,Low Clearance,Fresno,CA,93706,LC13,,13 - 6 height clearance,low_13_6_pushpin,
104275,34.12696,-118.26177,Low Clearance,Glendale,CA,91204,LC14,,14 - 9 height clearance,low_14_9_pushpin,
104317,38.57312,-122.8401,Low Clearance,Healdsburg,CA,95448,LC13,,13 - 8 height clearance,low_13_8_pushpin,
104334,34.10099,-117.10583000000001,Low Clearance,Highland,CA,92346,LC11,,11 - 6 height clearance (136),low_11_6_pushpin,
104412,33.63216,-117.69972,Low Clearance,Lake Forest,CA,92630,LC7,,7 - 5 height clearance (136),low_7_5_pushpin,
104519,34.05635,-118.25281000000001,Low Clearance,Los Angeles,CA,90012,LC12,,12 - 9 height clearance (136),low_12_9_pushpin,
104520,34.06735,-118.2393,Low Clearance,Los Angeles,CA,90012,LC13,,13 - 0 height clearance (136),low_13_0_pushpin,
104521,34.0775,-118.19398000000001,Low Clearance,Los Angeles,CA,90012,LC12,,12 - 3 height clearance (136),low_12_3_pushpin,
104522,34.07792,-118.26057,Low Clearance,Los Angeles,CA,90012,LC14,,14 - 0 height clearance,low_14_0_pushpin,
104523,34.07885,-118.193,Low Clearance,Los Angeles,CA,90012,LC13,,13 - 10 height clearance,low_13_10_pushpin,
104524,34.123673,-118.30078200000001,Low Clearance,Los Angeles,CA,90012,LC14,,14 - 0 height clearance,low_14_0_pushpin,
104525,34.1288,-118.48038000000001,Low Clearance,Los Angeles,CA,90012,LC13,,13 - 6 height clearance,low_13_6_pushpin,
104526,,,Low Clearance,Los Angeles,CA,90023,LC13,,13 - 5 height clearance (136),low_13_5_pushpin,
104578,38.0052,-122.10203,Low Clearance,Martinez,CA,94553,LC13,,13 - 6 height clearance,low_13_6_pushpin,
104580,39.13739,-121.58403999999999,Low Clearance,Marysville,CA,95901,LC14,,14 - 0 height clearance in center with 13 - 10 on the sides,low_14_0_pushpin,
104581,39.138490000000004,-121.58422,Low Clearance,Marysville,CA,95901,LC11,,11 - 7 height clearance (136),low_11_7_pushpin,
104582,39.13955,-121.59953999999999,Low Clearance,Marysville,CA,95901,LC14,,14 - 6 height clearance,low_14_6_pushpin,
104583,39.1396,-121.58436999999999,Low Clearance,Marysville,CA,95901,LC10,,10 - 0 height clearance (136),low_10_0_pushpin,
104584,39.1498,-121.59773,Low Clearance,Marysville,CA,95901,LC13,,13 - 5 height clearance (136),low_13_5_pushpin,
104752,33.17347,-117.36513000000001,Low Clearance,Oceanside,CA,92054,LC13,,13 - 0 height clearance (136),low_13_0_pushpin,
104770,34.06023,-117.65105,Low Clearance,Ontario,CA,91762,LC14,,14 - 7 height clearance,low_14_7_pushpin,
104771,34.061448999999996,-117.65091000000001,Low Clearance,Ontario,CA,91762,LC14,,14 - 10 height clearance,low_14_10_pushpin,
104790,34.608955,-117.34161399999999,Low Clearance,Oro Grande,CA,92368,LC13,,13 - 11 height clearance,low_13_11_pushpin,
104794,39.50939,-121.55553,Low Clearance,Oroville,CA,95966,LC13,,13 - 4 height clearance (136),low_13_4_pushpin,
104795,39.51116,-121.55391000000002,Low Clearance,Oroville,CA,95966,LC13,,13 - 4 height clearance (136),low_13_4_pushpin,
104817,37.442859999999996,-122.16453,Low Clearance,Palo Alto,CA,94301,LC14,,14 - 3 height clearance,low_14_3_pushpin,
104832,35.617754999999995,-120.68805800000001,Low Clearance,Paso Robles,CA,93446,LC10,,10 - 8 height clearance (136),low_10_8_pushpin,
104856,40.243997,-124.12291599999999,Low Clearance,Petrolia,CA,95558,LC13,,13 - 11 height clearance,low_13_11_pushpin,
104866,38.00816,-122.29276000000002,Low Clearance,Pinole,CA,94564,LC13,,13 - 6 height clearance,low_13_6_pushpin,
104902,40.0064,-121.2495,Low Clearance,Quincy,CA,95971,LC13,,13 - 0 height clearance (136),low_13_0_pushpin,
104961,37.921240000000004,-122.38555,Low Clearance,Richmond,CA,94801,LC12,,12 - 7 height clearance (136),low_12_7_pushpin,
104969,38.961290000000005,-121.53256,Low Clearance,Rio Oso,CA,95674,LC13,,13 - 8 height clearance,low_13_8_pushpin,
104987,33.91946,-117.4241,Low Clearance,Riverside,CA,92503,LC11,,11 - 7 height clearance (136),low_11_7_pushpin,
104988,33.923,-117.42703,Low Clearance,Riverside,CA,92503,LC14,,14 - 11 height clearance,low_14_11_pushpin,
104989,33.977270000000004,-117.37303999999999,Low Clearance,Riverside,CA,92503,LC13,,13 - 6 height clearance,low_13_6_pushpin,
105029,38.586859999999994,-121.48142,Low Clearance,Sacramento,CA,95832,LC13,,13 - 10 height clearance,low_13_10_pushpin,
105105,33.381223,-117.57739099999999,Low Clearance,San Clemente,CA,92672,LC15,,15 height clearance,low_15_0_pushpin,
105118,32.74579,-117.19243999999999,Low Clearance,San Diego,CA,92110,LC13,,13 - 8 height clearance,low_13_8_pushpin,
105150,37.73925,-122.39468000000001,Low Clearance,San Francisco,CA,94108,LC14,,14 - 6 height clearance,low_14_6_pushpin,
105151,37.7499,-122.39321000000001,Low Clearance,San Francisco,CA,94108,LC14,,14 - 0 height clearance,low_14_0_pushpin,
105152,37.78045,-122.3992,Low Clearance,San Francisco,CA,94108,LC13,,13 - 9 height clearance,low_13_9_pushpin,
105153,37.79065,-122.39511999999999,Low Clearance,San Francisco,CA,94108,LC13,,13 - 0 height clearance (136),low_13_0_pushpin,
105154,37.792770000000004,-122.40758999999998,Low Clearance,San Francisco,CA,94108,LC13,,13 - 0 height clearance (136),low_13_0_pushpin,
105165,37.31037,-121.88278999999999,Low Clearance,San Jose,CA,95126,LC14,,14 - 7 height clearance,low_14_7_pushpin,
105166,37.315749,-121.88762,Low Clearance,San Jose,CA,95126,LC14,,14 - 0 height clearance,low_14_0_pushpin,
105167,37.31796,-121.89075,Low Clearance,San Jose,CA,95126,LC13,,13 - 10 height clearance,low_13_10_pushpin,
105168,37.31814,-121.89303999999998,Low Clearance,San Jose,CA,95126,LC13,,13 - 6 height clearance,low_13_6_pushpin,
105169,37.31895,-121.89777,Low Clearance,San Jose,CA,95126,LC15,,15 - 0 height clearance,low_15_0_pushpin,
105170,37.326209999999996,-121.90283000000001,Low Clearance,San Jose,CA,95126,LC14,,14 - 2 height clearance,low_14_2_pushpin,
105171,37.33184,-121.90328999999998,Low Clearance,San Jose,CA,95126,LC14,,14 - 7 height clearance,low_14_7_pushpin,
105172,37.334590000000006,-121.9047,Low Clearance,San Jose,CA,95126,LC13,,13 - 8 height clearance,low_13_8_pushpin,
105199,37.71117,-122.14733999999999,Low Clearance,San Leandro,CA,94578,LC14,,14 - 1 height clearance,low_14_1_pushpin,
105207,36.116906,-121.02814,Low Clearance,San Lucas,CA,93954,LC13,,13 - 6 height clearance,low_13_6_pushpin,
105221,37.5374,-122.29693,Low Clearance,San Mateo,CA,94401,LC15,,15 - 1 height clearance,low_15_1_pushpin,
105222,37.56992,-122.32576999999999,Low Clearance,San Mateo,CA,94401,LC8,,8 - 6 height clearance (136),low_8_6_pushpin,
105223,37.57125,-122.32723999999999,Low Clearance,San Mateo,CA,94401,LC11,,11 - 1 height clearance (136),low_11_1_pushpin,
105224,37.572520000000004,-122.32874,Low Clearance,San Mateo,CA,94401,LC12,,12 - 1 height clearance (136),low_12_1_pushpin,
105225,37.573859999999996,-122.33058999999999,Low Clearance,San Mateo,CA,94401,LC13,,13 - 0 height clearance (136),low_13_0_pushpin,
105245,37.35822,-121.94736,Low Clearance,Santa Clara,CA,95051,LC14,,14 - 10 height clearance,low_14_10_pushpin,
105325,40.6818,-122.37528999999999,Low Clearance,Shasta Lake,CA,96019,LC13,,13 - 9 height clearance,low_13_9_pushpin,
105371,37.93412,-121.42161999999999,Low Clearance,Stockton,CA,95206,LC13,,13 - 5 height clearance (136),low_13_5_pushpin,
105372,37.94092,-121.27433,Low Clearance,Stockton,CA,95206,LC14,,14 - 11 height clearance,low_14_11_pushpin,
105373,37.957570000000004,-121.27885,Low Clearance,Stockton,CA,95206,LC15,,15 - 0 height clearance,low_15_0_pushpin,
105447,34.314685,-118.135849,Low Clearance,Tujunga,CA,91042,LC12,,15 - 0 height clearance (136) in arch center with 12 ft on sides,low_15_0_pushpin,
105544,37.71105,-120.60967,Low Clearance,Waterford,CA,95386,LC13,,13 - 0 height clearance (136),low_13_0_pushpin,
105564,38.5163,-121.55278,Low Clearance,West Sacramento,CA,95691,LC12,,12 - 10 height clearance (136),low_12_10_pushpin,
105565,38.582840000000004,-121.51693999999999,Low Clearance,West Sacramento,CA,95691,LC13,,13 - 6 height clearance,low_13_6_pushpin,
105588,39.052609999999994,-121.31995,Low Clearance,Wheatland,CA,95692,LC14,,14 - 6 height clearance,low_14_6_pushpin,
105665,39.200379999999996,-106.94997,Low Clearance,Aspen,CO,81611,LC12,,12 - 7 height clearance (136),low_12_7_pushpin,
105666,39.20342,-106.94993999999998,Low Clearance,Aspen,CO,81611,LC12,,12 - 7 height clearance (136),low_12_7_pushpin,
105698,40.258204,-103.60046,Low Clearance,Brush,CO,80723,LC15,,15 - 3 height clearance,low_15_3_pushpin,
105699,40.26853,-103.62194000000001,Low Clearance,Brush,CO,80723,LC13,,"At least 13 - 8 height clearance. Replaced and height is much higher, exact height unknown - used to be 13 - 4 height clearance (136)",low_13_8_pushpin,
105733,38.82082,-104.82421,Low Clearance,Colorado Springs,CO,80905,LC13,,13 - 0 height clearance (136),low_13_0_pushpin,
105734,38.82802,-104.81709000000001,Low Clearance,Colorado Springs,CO,80905,LC13,,"13 - 1 height clearance (136), 13 - 1 going eastbound, going westbound, it is 13 - 3 in left lanes and 13-6 in right lane.",low_13_1_pushpin,
105735,38.85083,-104.83102,Low Clearance,Colorado Springs,CO,80905,LC12,,12 - 5 height clearance (136),low_12_5_pushpin,
105801,39.68759,-104.99067,Low Clearance,Denver,CO,80223,LC13,,13 - 11 height clearance,low_13_11_pushpin,
105802,39.71115,-104.99588999999999,Low Clearance,Denver,CO,80223,LC15,,15 - 3 height clearance,low_15_3_pushpin,
105803,39.769259999999996,-104.99741999999999,Low Clearance,Denver,CO,80223,LC13,,13 - 1 height clearance (136),low_13_1_pushpin,
105804,39.77082,-104.97267,Low Clearance,Denver,CO,80223,LC13,,13 - 1 height clearance (136),low_13_1_pushpin,
105805,39.7769,-104.9791,Low Clearance,Denver,CO,80223,LC13,,13 - 8 height clearance,low_13_8_pushpin,
105806,39.78796,-104.96446,Low Clearance,Denver,CO,80223,LC13,,13 - 11 height clearance,low_13_11_pushpin,
105807,39.79408,-104.95641,Low Clearance,Denver,CO,80223,LC11,,11 - 4 height clearance (136),low_11_4_pushpin,
105808,39.80288,-104.9593,Low Clearance,Denver,CO,80223,LC13,,13 - 6 height clearance,low_13_6_pushpin,
105847,39.65992,-106.81577,Low Clearance,Edwards,CO,81632,LC13,,14 - 1 height clearance,low_14_1_pushpin,
105974,38.43157,-105.81267,Low Clearance,Howard,CO,81233,LC10,,10 - 10 height clearance (136),low_10_10_pushpin,
105981,40.80348,-103.16986,Low Clearance,Iliff,CO,80736,LC11,,11 - 0 height clearance (136) July 2014: User submitted,low_11_0_pushpin,
106090,38.254579,-104.606734,Low Clearance,Pueblo,CO,81003,LC13,,13 - 5 height clearance (136),low_13_5_pushpin,
106191,41.27564,-72.82935,Low Clearance,Branford,CT,6405,LC12,,12 - 11 height clearance (136),low_12_11_pushpin,
106197,41.670390000000005,-72.98509,Low Clearance,Bristol,CT,6010,LC13,,13 - 4 height clearance (136),low_13_4_pushpin,
106198,41.67112,-72.93656999999999,Low Clearance,Bristol,CT,6010,LC13,,13 - 6 height clearance,low_13_6_pushpin,
106199,41.672540000000005,-72.94274,Low Clearance,Bristol,CT,6010,LC11,,11 - 6 height clearance (136),low_11_6_pushpin,
106203,41.45645,-73.39317,Low Clearance,Brookfield,CT,6804,LC12,,12 - 1 height clearance (136),low_12_1_pushpin,
106206,41.27949,-72.52792,Low Clearance,Clinton,CT,6413,LC11,,11 - 9 height clearance (136),low_11_9_pushpin,
106207,41.279871,-72.53364300000001,Low Clearance,Clinton,CT,6413,LC11,,11 - 3 height clearance (136),low_11_3_pushpin,
106211,41.59148,-72.64864,Low Clearance,Cromwell,CT,6416,LC11,,11 - 9 height clearance (136),low_11_9_pushpin,
106220,41.0771,-73.47029,Low Clearance,Darien,CT,6820,LC11,,11 - 0 height clearance (136),low_11_0_pushpin,
106229,41.77613,-72.63899,Low Clearance,East Hartford,CT,6108,LC13,,13 - 6 height clearance,low_13_6_pushpin,
106236,41.14764,-73.25023,Low Clearance,Fairfield,CT,6824,LC10,,10 - 5 height clearance (136),low_10_5_pushpin,
106237,41.17998,-73.313,Low Clearance,Fairfield,CT,6824,LC14,,14 - 0 height clearance,low_14_0_pushpin,
106238,41.185371999999994,-73.306898,Low Clearance,Fairfield,CT,6824,LC12,,12 - 6 height clearance (136),low_12_6_pushpin,
106239,41.19016,-73.299356,Low Clearance,Fairfield,CT,6824,LC9,,"9 - 9 height clearance, unsigned so not exact height (136)",low_9_9_pushpin,
106240,41.194326000000004,-73.286063,Low Clearance,Fairfield,CT,6824,LC9,,"9 - 9 height clearance, unsigned so not exact height (136)",low_9_9_pushpin,
106246,41.036821999999994,-73.675498,Low Clearance,Greenwich,CT,6831,LC9,,9 - 9 height clearance (136),low_9_9_pushpin,
106247,41.083864,-73.665243,Low Clearance,Greenwich,CT,6831,LC9,,"9 - 9 height clearance, unsigned so not exact height (136)",low_9_9_pushpin,
106248,41.094505,-73.63237,Low Clearance,Greenwich,CT,6831,LC9,,"9 - 9 height clearance, unsigned so not exact height (136)",low_9_9_pushpin,
106249,41.095636999999996,-73.64882800000001,Low Clearance,Greenwich,CT,6831,LC9,,"9 - 9 height clearance, unsigned so not exact height (136)",low_9_9_pushpin,
106250,41.097335,-73.603617,Low Clearance,Greenwich,CT,6830,LC11,,11 - 7 height clearance (136),low_11_7_pushpin,
106251,41.1008,-73.59227,Low Clearance,Greenwich,CT,6830,LC10,,10 - 4 height clearance (136),low_10_4_pushpin,
106252,41.10091,-73.59184,Low Clearance,Greenwich,CT,6830,LC11,,11 - 4 height clearance (136),low_11_4_pushpin,
106256,41.341951,-72.038917,Low Clearance,Groton,CT,6340,LC10,,10 - 6 height clearance (136),low_10_6_pushpin,
106257,41.345987,-72.052836,Low Clearance,Groton,CT,6340,LC12,,12 - 9 height clearance (136),low_12_9_pushpin,
106258,41.363447,-72.08252,Low Clearance,Groton,CT,6340,LC13,,13 - 5 height clearance (136),low_13_5_pushpin,
106260,41.377819,-72.91461600000001,Low Clearance,Hamden,CT,6514,LC13,,13 - 6 height clearance,low_13_6_pushpin,
106266,41.738440000000004,-72.66553,Low Clearance,Hartford,CT,6114,LC13,,13 - 8 height clearance,low_13_8_pushpin,
106269,41.60579,-72.0034,Low Clearance,Jewett City,CT,6351,LC12,,12 - 2 height clearance (136),low_12_0_pushpin,
106270,41.634479999999996,-72.76638,Low Clearance,Kensington,CT,6037,LC12,,12 - 0 height clearance (136) Jun 2014: User submitted,low_12_0_pushpin,
106279,41.22399,-73.04972,Low Clearance,Milford,CT,6460,LC12,,12 - 2 height clearance (136),low_12_0_pushpin,
106280,41.22612,-73.0327,Low Clearance,Milford,CT,6460,LC12,,12 - 6 height clearance (136),low_12_6_pushpin,
106290,41.354729999999996,-71.96903,Low Clearance,Mystic,CT,6355,LC12,,"12 - 8 height clearance (136), May 2014: User submitted",low_12_8_pushpin,
106294,41.11649,-73.49388,Low Clearance,New Canaan,CT,6840,LC13,,13 - 1 height clearance (136),low_13_1_pushpin,
106295,41.11657,-73.49344,Low Clearance,New Canaan,CT,6840,LC12,,12 - 1 height clearance (136),low_12_1_pushpin,
106296,41.11903,-73.51737,Low Clearance,New Canaan,CT,6840,LC12,,12 - 2 height clearance (136),low_12_0_pushpin,
106297,41.119097,-73.48307700000001,Low Clearance,New Canaan,CT,6840,LC9,,"9 - 9 height clearance, unsigned so not exact height (136)",low_9_9_pushpin,
106298,41.12251,-73.49831999999999,Low Clearance,New Canaan,CT,6840,LC11,,11 - 2 height clearance (136),low_11_2_pushpin,
106299,41.12303,-73.47381,Low Clearance,New Canaan,CT,6840,LC13,,13 - 1 height clearance (136),low_13_1_pushpin,
106300,41.12683,-73.46761,Low Clearance,New Canaan,CT,6840,LC13,,13 - 0 height clearance (136),low_13_0_pushpin,
106303,41.28452,-72.93065,Low Clearance,New Haven,CT,6511,LC14,,14 - 1 height clearance,low_14_1_pushpin,
106304,41.3137,-72.90568,Low Clearance,New Haven,CT,6511,LC12,,12 - 3 height clearance (136),low_12_3_pushpin,
106305,41.31477,-72.90405,Low Clearance,New Haven,CT,6511,LC12,,12 - 1 height clearance (136),low_12_1_pushpin,
106306,41.31603,-72.8772,Low Clearance,New Haven,CT,6511,LC12,,12 - 5 height clearance (136),low_12_5_pushpin,
106310,41.41704,-73.29626999999999,Low Clearance,Newtown,CT,6470,LC13,,"13 - 0 height clearance (136), June 2014: User submitted",low_13_0_pushpin,
106324,41.137619,-73.444925,Low Clearance,Norwalk,CT,6850,LC13,,13 - 0 height clearance (136),low_13_0_pushpin,
106325,41.145481,-73.417448,Low Clearance,Norwalk,CT,6851,LC9,,"9 - 9 height clearance, unsigned so not exact height (136)",low_9_9_pushpin,
106326,41.550342,-72.110951,Low Clearance,Norwich,CT,6360,LC11,,11 - 0 height clearance (136),low_11_0_pushpin,
106331,41.28758,-73.04132,Low Clearance,Orange,CT,6477,LC13,,13 - 10 height clearance,low_13_10_pushpin,
106346,41.10054,-73.58248,Low Clearance,Stamford,CT,6903,LC11,,11 - 4 height clearance (136),low_11_4_pushpin,
106347,41.10069,-73.58202,Low Clearance,Stamford,CT,6903,LC12,,12 - 6 height clearance (136),low_12_6_pushpin,
106348,41.10285,-73.5659,Low Clearance,Stamford,CT,6903,LC12,,14 - 2 height clearance in center but 11 - 11 on side lanes,low_14_2_pushpin,
106349,41.10635,-73.55943,Low Clearance,Stamford,CT,6903,LC12,,12 - 0 height clearance (136),low_12_0_pushpin,
106350,41.106759999999994,-73.55912,Low Clearance,Stamford,CT,6903,LC12,,12 - 4 height clearance (136),low_12_4_pushpin,
106351,41.116227,-73.535112,Low Clearance,Stamford,CT,6903,LC9,,"9 - 9 height clearance, unsigned so not exact height (136)",low_9_9_pushpin,
106352,41.11892,-73.51773,Low Clearance,Stamford,CT,6903,LC12,,12 - 2 height clearance (136),low_12_0_pushpin,
106354,41.7845,-72.27964,Low Clearance,Storrs,CT,6268,LC12,,12 - 0 height clearance (136),low_12_0_pushpin,
106355,41.19412,-73.1316,Low Clearance,Stratford,CT,6615,LC13,,13 - 0 height clearance (136),low_13_0_pushpin,
106356,41.2031,-73.11783,Low Clearance,Stratford,CT,6615,LC11,,11 - 1 height clearance (136),low_11_1_pushpin,
106357,41.672340000000005,-72.9928,Low Clearance,Terryville,CT,6786,LC13,,13 - 3 height clearance (136),low_13_3_pushpin,
106369,41.2718,-72.96092,Low Clearance,West Haven,CT,6516,LC14,,14 - 0 height clearance,low_14_0_pushpin,
106370,41.27726,-72.95368,Low Clearance,West Haven,CT,6516,LC12,,12 - 5 height clearance (136),low_12_5_pushpin,
106371,41.27902,-72.95170999999999,Low Clearance,West Haven,CT,6516,LC10,,10 - 7 height clearance (136),low_10_7_pushpin,
106374,41.11806,-73.37491999999999,Low Clearance,Westport,CT,6851,LC10,,10 - 11 height clearance (136),low_10_11_pushpin,
106375,41.14886,-73.41149,Low Clearance,Westport,CT,6851,LC13,,13 - 2 height clearance (136),low_13_2_pushpin,
106376,41.15312,-73.40403,Low Clearance,Westport,CT,6851,LC12,,12 - 10 height clearance (136),low_12_10_pushpin,
106377,41.16339,-73.363291,Low Clearance,Westport,CT,6880,LC9,,"9 - 9 height clearance, unsigned so not exact height (136)",low_9_9_pushpin,
106378,41.16339,-73.383504,Low Clearance,Westport,CT,6880,LC9,,"9 - 9 height clearance, unsigned so not exact height (136)",low_9_9_pushpin,
106379,41.16383,-73.35793000000001,Low Clearance,Westport,CT,6851,LC13,,13 - 6 height clearance,low_13_6_pushpin,
106380,41.168414,-73.342177,Low Clearance,Westport,CT,6880,LC9,,"9 - 9 height clearance, unsigned so not exact height (136)",low_9_9_pushpin,
106384,41.85417,-72.64199,Low Clearance,Windsor,CT,6095,LC12,,12 - 5 height clearance (136),low_12_5_pushpin,
106389,41.31354,-73.02163,Low Clearance,Woodbridge,CT,6525,LC13,,13 - 6 height clearance,low_13_6_pushpin,
106390,38.84533,-77.00839,Low Clearance,Washington DC,DC,20037,LC13,,13 - 6 height clearance,low_13_6_pushpin,
106391,38.86868,-76.98997,Low Clearance,Washington DC,DC,20037,LC13,,13 - 9 height clearance,low_13_9_pushpin,
106392,38.878029999999995,-77.03773000000001,Low Clearance,Washington DC,DC,20037,LC12,,12 - 3 height clearance (136),low_12_3_pushpin,
106393,38.88212,-77.00913,Low Clearance,Washington DC,DC,20037,LC13,,13 - 2 height clearance (136),low_13_2_pushpin,
106394,38.88345,-77.01371,Low Clearance,Washington DC,DC,20037,LC13,,13 - 2 height clearance (136),low_13_2_pushpin,
106395,38.88377,-77.01518,Low Clearance,Washington DC,DC,20037,LC13,,13 - 5 height clearance (136),low_13_5_pushpin,
106396,38.88408,-77.00905,Low Clearance,Washington DC,DC,20037,LC13,,13 - 2 height clearance (136),low_13_2_pushpin,
106397,38.88579,-77.02186999999999,Low Clearance,Washington DC,DC,20037,LC13,,13 - 6 height clearance,low_13_6_pushpin,
106398,38.90565,-77.00317,Low Clearance,Washington DC,DC,20037,LC13,,13 - 6 height clearance,low_13_6_pushpin,
106399,38.9071,-77.00901,Low Clearance,Washington DC,DC,20037,LC13,,13 - 7 height clearance,low_13_7_pushpin,
106400,38.90761,-77.00909,Low Clearance,Washington DC,DC,20037,LC13,,13 - 7 height clearance,low_13_7_pushpin,
106401,38.90794,-77.00234,Low Clearance,Washington DC,DC,20037,LC13,,13 - 10 height clearance,low_13_10_pushpin,
106402,38.92866,-77.01813,Low Clearance,Washington DC,DC,20037,LC13,,13 - 10 height clearance,low_13_10_pushpin,
106408,39.810320000000004,-75.44037,Low Clearance,Claymont,DE,19703,LC14,,14 - 0 height clearance,low_14_0_pushpin,
106448,39.683679999999995,-75.65629,Low Clearance,Newark,DE,19711,LC14,,14 - 1 height clearance,low_14_1_pushpin,
106449,39.69464,-75.6933,Low Clearance,Newark,DE,19711,LC14,,14 - 8 height clearance,low_14_8_pushpin,
106455,39.71198,-75.60916,Low Clearance,Newport,DE,19804,LC13,,13 - 2 height clearance (136),low_13_2_pushpin,
106491,29.779902000000003,-82.511424,Low Clearance,Alachua,FL,32615,LC13,,13 - 2 height clearance (136),low_13_2_pushpin,
106538,30.534551,-87.334508,Low Clearance,Cantonment,FL,32533,LC14,,14 - 4 height clearance,low_14_4_pushpin,
106581,26.28593,-80.25316,Low Clearance,Coral Springs,FL,33065,LC10,,10 - 4 height clearance (136),low_10_4_pushpin,
106613,25.79695,-80.32154,Low Clearance,Doral,FL,33122,LC13,,13 - 6 height clearance,low_13_6_pushpin,
106677,27.46988,-80.4431,Low Clearance,Fort Pierce,FL,34945,LC13,,13 - 4 height clearance (136),low_13_4_pushpin,
106726,28.099390000000003,-81.61684,Low Clearance,Haines City,FL,33844,LC14,,14 - 0 height clearance,low_14_0_pushpin,
106749,25.78533,-80.19233,Low Clearance,Homestead,FL,33132,LC13,,13 - 9 height clearance,low_13_9_pushpin,
106750,25.78691,-80.19691,Low Clearance,Homestead,FL,33132,LC13,,13 - 8 height clearance,low_13_8_pushpin,
106786,30.29203,-81.72064,Low Clearance,Jacksonville,FL,32244,LC12,,12 - 4 height clearance (136),low_12_4_pushpin,
106787,30.32892,-81.64582,Low Clearance,Jacksonville,FL,32244,LC11,,11 - 11 height clearance (136),low_11_11_pushpin,
106879,26.609070000000003,-80.07791,Low Clearance,Lake Worth,FL,33461,LC11,,11 - 6 height clearance (136),low_11_6_pushpin,
106880,26.609090000000002,-80.07736,Low Clearance,Lake Worth,FL,33461,LC11,,11 - 5 height clearance (136),low_11_5_pushpin,
106889,28.042559999999998,-81.96984,Low Clearance,Lakeland,FL,33815,LC12,,12 - 6 height clearance (136),low_12_6_pushpin,
106890,28.0484,-81.93921,Low Clearance,Lakeland,FL,33815,LC13,,13 - 6 height clearance,low_13_6_pushpin,
106961,28.61245,-81.36544,Low Clearance,Maitland,FL,32751,LC13,,13 - 4 height clearance (136),low_13_4_pushpin,
106990,25.78045,-80.31255999999999,Low Clearance,Miami,FL,33126,LC13,,13 - 8 height clearance,low_13_8_pushpin,
106991,25.78276,-80.23124,Low Clearance,Miami,FL,33126,LC13,,13 - 0 height clearance (136),low_13_0_pushpin,
106992,25.783160000000002,-80.23326,Low Clearance,Miami,FL,33126,LC12,,12 - 4 height clearance (136),low_12_4_pushpin,
106993,25.78578,-80.18911999999999,Low Clearance,Miami,FL,33126,LC13,,13 - 8 height clearance,low_13_8_pushpin,
106994,25.785829999999997,-80.25135999999999,Low Clearance,Miami,FL,33126,LC13,,13 - 6 height clearance,low_13_6_pushpin,
106995,25.786179999999998,-80.19068,Low Clearance,Miami,FL,33126,LC14,,14 - 4 height clearance,low_14_4_pushpin,
106996,25.786479999999997,-80.19404,Low Clearance,Miami,FL,33126,LC14,,14 - 2 height clearance,low_14_2_pushpin,
106997,25.78679,-80.19505,Low Clearance,Miami,FL,33126,LC13,,13 - 8 height clearance,low_13_8_pushpin,
106998,25.78697,-80.1956,Low Clearance,Miami,FL,33126,LC13,,13 - 8 height clearance,low_13_8_pushpin,
106999,25.78734,-80.19795,Low Clearance,Miami,FL,33126,LC15,,15 - 6 height clearance,low_15_6_pushpin,
107000,25.78745,-80.21099,Low Clearance,Miami,FL,33126,LC14,,14 - 2 height clearance,low_14_2_pushpin,
107001,25.787670000000002,-80.19868000000001,Low Clearance,Miami,FL,33126,LC13,,13 - 8 height clearance,low_13_8_pushpin,
107002,25.787760000000002,-80.21033,Low Clearance,Miami,FL,33126,LC14,,14 - 0 height clearance,low_14_0_pushpin,
107003,25.787979999999997,-80.19931,Low Clearance,Miami,FL,33126,LC13,,13 - 8 height clearance,low_13_8_pushpin,
107004,25.7881,-80.19958000000001,Low Clearance,Miami,FL,33126,LC13,,13 - 8 height clearance,low_13_8_pushpin,
107005,25.81757,-80.20655,Low Clearance,Miami,FL,33126,LC14,,14 - 0 height clearance,low_14_0_pushpin,
107006,25.824089999999998,-80.20685,Low Clearance,Miami,FL,33126,LC14,,14 - 0 height clearance,low_14_0_pushpin,
107007,25.82497,-80.20687,Low Clearance,Miami,FL,33126,LC14,,14 - 0 height clearance,low_14_0_pushpin,
107008,25.843420000000002,-80.20673000000001,Low Clearance,Miami,FL,33126,LC13,,13 - 0 height clearance (136),low_13_0_pushpin,
107009,25.9131,-80.21038,Low Clearance,Miami,FL,33126,LC13,,13 - 8 height clearance,low_13_8_pushpin,
107031,25.7757,-80.14097,Low Clearance,Miami Beach,FL,33139,LC11,,11 - 8 height clearance (136),low_11_8_pushpin,
107032,25.92657,-80.24467,Low Clearance,Miami Gardens,FL,33056,LC14,,14 - 1 height clearance,low_14_1_pushpin,
107033,25.92974,-80.21066,Low Clearance,Miami Gardens,FL,33056,LC14,,14 - 0 height clearance,low_14_0_pushpin,
107035,29.429059999999996,-82.26290999999999,Low Clearance,Micanopy,FL,32667,LC13,,13 - 6 height clearance,low_13_6_pushpin,
107070,29.021103999999998,-80.924412,Low Clearance,New Smyrna Beach,FL,32168,LC11,,11 - 8 height clearance (136),low_11_8_pushpin,
107146,28.51243,-81.3928,Low Clearance,Orlando,FL,32805,LC14,,14 - 1 height clearance,low_14_1_pushpin,
107147,28.57494,-81.37595999999999,Low Clearance,Orlando,FL,32805,LC13,,13 - 8 height clearance,low_13_8_pushpin,
107220,30.420461,-87.193895,Low Clearance,Pensacola,FL,32501,LC10,,10 - 8 height clearance (136),low_10_8_pushpin,
107221,30.4401,-87.21668000000001,Low Clearance,Pensacola,FL,32503,LC13,,13 - 8 height clearance,low_13_8_pushpin,
107371,30.43794,-84.27832,Low Clearance,Tallahassee,FL,32301,LC13,,13 - 4 height clearance (136),low_13_4_pushpin,
107372,30.4383,-84.27632,Low Clearance,Tallahassee,FL,32301,LC13,,13 - 4 height clearance (136),low_13_4_pushpin,
107373,30.455470000000002,-84.34353,Low Clearance,Tallahassee,FL,32301,LC14,,14 - 0 height clearance,low_14_0_pushpin,
107403,27.959770000000002,-82.45534,Low Clearance,Tampa,FL,33602,LC14,,14 - 0 height clearance,low_14_0_pushpin,
107404,28.010679999999997,-82.45424,Low Clearance,Tampa,FL,33602,LC14,,14 - 4 height clearance,low_14_4_pushpin,
107405,28.01613,-82.4552,Low Clearance,Tampa,FL,33602,LC13,,13 - 8 height clearance,low_13_8_pushpin,
107430,28.12991,-82.73794000000001,Low Clearance,Tarpon Springs,FL,34689,LC13,,13 - 8 height clearance,low_13_8_pushpin,
107454,26.675929999999997,-80.05875999999999,Low Clearance,West Palm Beach,FL,33405,LC10,,10 - 6 height clearance (136),low_10_6_pushpin,
107500,28.58868,-81.37733,Low Clearance,Winter Park,FL,32789,LC13,,13 - 4 height clearance (136),low_13_4_pushpin,
107501,28.589470000000002,-81.37827,Low Clearance,Winter Park,FL,32789,LC13,,13 - 4 height clearance (136),low_13_4_pushpin,
107502,28.596009999999996,-81.38566999999999,Low Clearance,Winter Park,FL,32789,LC13,,13 - 8 height clearance,low_13_8_pushpin,
107503,28.612109999999998,-81.36528,Low Clearance,Winter Park,FL,32789,LC13,,13 - 4 height clearance (136),low_13_4_pushpin,
107534,31.576520000000002,-84.14066,Low Clearance,Albany,GA,31705,LC12,,12 - 1 height clearance (136),low_12_1_pushpin,
107555,33.953070000000004,-83.37091,Low Clearance,Athens,GA,30605,LC13,,13 - 4 height clearance (136),low_13_4_pushpin,
107556,33.965937700000005,-83.3783026,Low Clearance,Athens,GA,30601,LC9,,9 - 0 height clearance (136),low_9_0_pushpin,
107557,33.967164200000006,-83.38524129999999,Low Clearance,Athens,GA,30601,LC8,,8 - 7 height clearance (136),low_8_7_pushpin,
107573,33.72831,-84.36379000000001,Low Clearance,Atlanta,GA,30314,LC12,,12 - 10 height clearance (136),low_12_10_pushpin,
107574,33.73673,-84.4038,Low Clearance,Atlanta,GA,30314,LC13,,13 - 1 height clearance (136),low_13_1_pushpin,
107575,33.738170000000004,-84.40544,Low Clearance,Atlanta,GA,30314,LC9,,9 - 10 height clearance (136),low_9_10_pushpin,
107576,33.738209999999995,-84.41261,Low Clearance,Atlanta,GA,30314,LC13,,13 - 6 height clearance,low_13_6_pushpin,
107577,33.743390000000005,-84.40831,Low Clearance,Atlanta,GA,30314,LC14,,14 - 6 height clearance,low_14_6_pushpin,
107578,33.74882,-84.37955,Low Clearance,Atlanta,GA,30314,LC13,,13 - 1 height clearance (136),low_13_1_pushpin,
107579,33.74925,-84.37666,Low Clearance,Atlanta,GA,30314,LC13,,13 - 4 height clearance (136),low_13_4_pushpin,
107580,33.75164,-84.37114,Low Clearance,Atlanta,GA,30314,LC13,,13 - 8 height clearance,low_13_8_pushpin,
107581,33.75357,-84.42591999999999,Low Clearance,Atlanta,GA,30314,LC12,,12 - 8 height clearance (136),low_12_8_pushpin,
107582,33.754459999999995,-84.36653000000001,Low Clearance,Atlanta,GA,30314,LC13,,13 - 1 height clearance (136),low_13_1_pushpin,
107583,33.76342,-84.40375,Low Clearance,Atlanta,GA,30314,LC13,,13 - 1 height clearance (136),low_13_1_pushpin,
107584,33.76426,-84.40465999999999,Low Clearance,Atlanta,GA,30314,LC11,,11 - 0 height clearance (136),low_11_0_pushpin,
107585,33.78862,-84.40759,Low Clearance,Atlanta,GA,30314,LC14,,14 - 1 height clearance,low_14_1_pushpin,
107586,33.818259999999995,-84.4631,Low Clearance,Atlanta,GA,30314,LC13,,13 - 4 height clearance (136),low_13_4_pushpin,
107587,33.82097,-84.37266,Low Clearance,Atlanta,GA,30314,LC13,,13 - 6 height clearance,low_13_6_pushpin,
107588,33.82142,-84.44702,Low Clearance,Atlanta,GA,30314,LC12,,12 - 0 height clearance (136),low_12_0_pushpin,
107617,33.45902,-82.00867,Low Clearance,Augusta,GA,30904,LC10,,10 - 5 height clearance (136),low_10_5_pushpin,
107640,31.317120000000003,-82.2234,Low Clearance,Blackshear,GA,31516,LC9,,9 - 8 height clearance (136),low_9_8_pushpin,
107663,33.80232,-85.18822,Low Clearance,Buchanan,GA,30113,LC13,,13 - 10 height clearance,low_13_10_pushpin,
107673,32.199337,-83.906586,Low Clearance,Byromville,GA,31007,LC14,,14 - 4 height clearance,low_14_4_pushpin,
107708,34.18249,-84.81596,Low Clearance,Cartersville,GA,30121,LC13,,13 - 8 height clearance,low_13_8_pushpin,
107709,34.18627,-84.80185,Low Clearance,Cartersville,GA,30121,LC10,,10 - 0 height clearance (136),low_10_0_pushpin,
107727,34.00399,-85.24384,Low Clearance,Cedartown,GA,30125,LC11,,11 - 2 height clearance (136),low_11_2_pushpin,
107731,34.84879,-84.75262,Low Clearance,Chatsworth,GA,30705,LC10,,10 - 1 height clearance (136),low_10_1_pushpin,
107754,32.40469,-84.91111,Low Clearance,Columbus,GA,31901,LC13,,13 - 8 height clearance,low_13_8_pushpin,
107755,32.45095,-84.96137,Low Clearance,Columbus,GA,31901,LC11,,11 - 2 height clearance (136),low_11_2_pushpin,
107756,32.46602,-84.9825,Low Clearance,Columbus,GA,31901,LC9,,9 - 5 height clearance (136),low_9_5_pushpin,
107757,32.477470000000004,-84.99172,Low Clearance,Columbus,GA,31901,LC11,,11 - 1 height clearance (136),low_11_1_pushpin,
107783,31.97066,-83.7849,Low Clearance,Cordele,GA,31015,LC11,,11 - 10 height clearance (136),low_11_10_pushpin,
107784,31.973959999999998,-83.78497,Low Clearance,Cordele,GA,31015,LC12,,12 - 2 height clearance (136),low_12_0_pushpin,
107791,34.51063,-83.52776999999999,Low Clearance,Cornelia,GA,30531,LC12,,12 - 4 height clearance (136),low_12_4_pushpin,
107798,33.92865,-84.8951,Low Clearance,Dallas,GA,30132,LC13,,13 - 0 height clearance (136),low_13_0_pushpin,
107832,33.77292,-84.28797,Low Clearance,Decatur,GA,30030,LC13,,13 - 10 height clearance,low_13_10_pushpin,
107833,33.7734743,-84.30214670000001,Low Clearance,Decatur,GA,30030,LC14,,14 - 6 height clearance,low_14_6_pushpin,
107848,33.77415870000001,-84.31547990000001,Low Clearance,Druid Hills,GA,30033,LC10,,10 - 0 height clearance (136),low_10_0_pushpin,
107867,33.32719,-83.38725,Low Clearance,Eatonton,GA,31024,LC7,,7 - 4 height clearance (136),low_7_4_pushpin,
107876,33.56649,-84.58109,Low Clearance,Fairburn,GA,30213,LC10,,10 - 0 height clearance (136),low_10_0_pushpin,
107879,31.716057,-83.259842,Low Clearance,Fitzgerald,GA,31750,LC14,,14 - 0 height clearance,low_14_0_pushpin,
107907,33.12822,-84.5721,Low Clearance,Gay,GA,30218,LC11,,11 - 6 height clearance (136),low_11_6_pushpin,
107910,33.250040000000006,-84.26225,Low Clearance,Griffin,GA,30223,LC13,,13 - 6 height clearance,low_13_6_pushpin,
107911,33.250662,-84.262096,Low Clearance,Griffin,GA,30223,LC14,,14 - 0 height clearance,low_14_0_pushpin,
107914,33.429810499999995,-82.1870114,Low Clearance,Grovetown,GA,30813,LC15,,15 - 5 height clearance,low_15_5_pushpin,
107950,31.60854,-81.87897,Low Clearance,Jesup,GA,31545,LC9,,9 - 6 height clearance (136),low_9_6_pushpin,
107970,33.02937,-85.03456,Low Clearance,La Grange,GA,30240,LC12,,12 - 8 height clearance (136),low_12_8_pushpin,
107971,33.029759999999996,-85.03369,Low Clearance,La Grange,GA,30240,LC12,,12 - 10 height clearance (136),low_12_10_pushpin,
108019,32.825322,-83.630676,Low Clearance,Macon,GA,31201,LC10,,10 - 6 height clearance (136),low_10_6_pushpin,
108020,32.82785,-83.61851999999999,Low Clearance,Macon,GA,31201,LC13,,13 - 6 height clearance,low_13_6_pushpin,
108021,32.831927,-83.624607,Low Clearance,Macon,GA,31201,LC14,,14 - 8 height clearance,low_14_8_pushpin,
108022,32.841015999999996,-83.65583000000001,Low Clearance,Macon,GA,31204,LC14,,14 - 0 height clearance,low_14_0_pushpin,
108029,33.597863200000006,-83.47046970000001,Low Clearance,Madison,GA,30650,LC13,,13 - 6 height clearance,low_13_6_pushpin,
108030,33.59799,-83.40471,Low Clearance,Madison,GA,30650,LC9,,9 - 4 height clearance (136),low_9_4_pushpin,
108060,33.082240000000006,-83.23789000000001,Low Clearance,Milledgeville,GA,31061,LC11,,11 - 1 height clearance (136),low_11_1_pushpin,
108064,33.599470000000004,-84.33284,Low Clearance,Morrow,GA,30260,LC15,,15 - 0 height clearance,low_15_0_pushpin,
108076,34.518162100000005,-83.5022788,Low Clearance,Mt Airy,GA,30563,LC10,,10 - 2 height clearance (136),low_10_2_pushpin,
108079,33.42582,-84.86043000000001,Low Clearance,Newnan,GA,30263,LC11,,11 - 0 height clearance (136),low_11_0_pushpin,
108104,32.88435,-84.81896,Low Clearance,Pine Mountain,GA,31822,LC12,,12 - 0 height clearance (136),low_12_0_pushpin,
108105,32.91876,-84.97651,Low Clearance,Pine Mountain,GA,31822,LC13,,13 - 6 height clearance,low_13_6_pushpin,
108135,34.91485,-85.10736999999999,Low Clearance,Ringgold,GA,30736,LC11,,11 - 6 height clearance (136),low_11_6_pushpin,
108136,34.975609999999996,-85.197,Low Clearance,Ringgold,GA,30736,LC13,,13 - 10 height clearance,low_13_10_pushpin,
108155,34.2579,-85.15886,Low Clearance,Rome,GA,30161,LC11,,11 - 1 height clearance (136),low_11_1_pushpin,
108156,34.271011,-85.150566,Low Clearance,Rome,GA,30161,LC12,,12 - 0 height clearance (136),low_12_0_pushpin,
108163,34.33995,-84.71743000000001,Low Clearance,Rydal,GA,30171,LC12,,12 - 0 height clearance (136),low_12_0_pushpin,
108170,32.06113,-81.0897,Low Clearance,Savannah,GA,31401,LC13,,13 - 0 height clearance (136),low_13_0_pushpin,
108171,32.06499,-81.08771999999999,Low Clearance,Savannah,GA,31401,LC13,,13 - 0 height clearance (136),low_13_0_pushpin,
108172,32.0796945,-81.1122341,Low Clearance,Savannah,GA,31415,LC13,,13 - 3 height clearance (136),low_13_3_pushpin,
108187,33.82777,-84.45935,Low Clearance,Smyrna,GA,30080,LC14,,14 - 0 height clearance,low_14_0_pushpin,
108188,33.849140000000006,-84.55893,Low Clearance,Smyrna,GA,30080,LC7,,7 - 6 height clearance (136),low_7_6_pushpin,
108193,32.401070000000004,-82.63145,Low Clearance,Soperton,GA,30457,LC13,,13 - 10 height clearance,low_13_10_pushpin,
108194,32.3783693,-81.3213329,Low Clearance,Springfield,GA,31329,LC13,,13 - 7 height clearance,low_13_7_pushpin,
108196,33.2176065,-82.4473933,Low Clearance,Stapleton,GA,30823,LC14,,14 - 1 height clearance,low_14_1_pushpin,
108201,33.81086079999999,-84.1724309,Low Clearance,Stone Mountain,GA,30083,LC12,,12 - 0 height clearance (136),low_12_0_pushpin,
108202,33.814029999999995,-84.17758,Low Clearance,Stone Mountain,GA,30083,LC12,,12 - 6 height clearance (136),low_12_6_pushpin,
108205,34.47413,-85.3542,Low Clearance,Summerville,GA,30747,LC7,,7 - 1 height clearance (136),low_7_1_pushpin,
108209,32.686640000000004,-81.579711,Low Clearance,Sylvania,GA,30467,LC13,,13 - 4 height clearance (136),low_13_4_pushpin,
108211,32.682284,-84.53806999999999,Low Clearance,Talbotton,GA,31827,LC14,,14 - 9 height clearance,low_14_9_pushpin,
108229,30.83888,-83.99063000000001,Low Clearance,Thomasville,GA,31792,LC10,,10 - 0 height clearance (136),low_10_0_pushpin,
108247,34.578191,-83.33310300000001,Low Clearance,Toccoa,GA,30577,LC13,,13 - 6 height clearance,low_13_6_pushpin,
108260,33.61603,-83.07901,Low Clearance,Union Point,GA,30669,LC13,,13 - 6 height clearance,low_13_6_pushpin,
108290,32.900578,-84.695734,Low Clearance,Warm Springs,GA,31830,LC13,,13 - 8 height clearance,low_13_8_pushpin,
108294,33.406869,-82.66830949999999,Low Clearance,Warrenton,GA,30828,LC13,,13 - 6 height clearance,low_13_6_pushpin,
108295,33.40948,-82.64143,Low Clearance,Warrenton,GA,30828,LC13,,13 - 8 height clearance,low_13_8_pushpin,
108297,33.80296,-83.3637,Low Clearance,Watkinsville,GA,30677,LC11,,11 - 2 height clearance (136),low_11_2_pushpin,
108301,31.211845,-82.355568,Low Clearance,Waycross,GA,31501,LC14,,14 - 0 height clearance,low_14_0_pushpin,
108302,31.212529999999997,-82.35389,Low Clearance,Waycross,GA,31501,LC11,,11 - 10 height clearance (136),low_11_10_pushpin,
108303,31.217387,-82.348658,Low Clearance,Waycross,GA,31501,LC14,,14 - 0 height clearance,low_14_0_pushpin,
108305,33.09825,-82.01794,Low Clearance,Waynesboro,GA,30830,LC13,,13 - 4 height clearance (136),low_13_4_pushpin,
108311,34.963263,-85.417674,Low Clearance,Wildwood,GA,30757,LC8,,8 - 0 height clearance (136),low_8_0_pushpin,
108316,33.992340000000006,-83.72419000000001,Low Clearance,Winder,GA,30680,LC13,,13 - 8 height clearance,low_13_8_pushpin,
108351,42.75023,-92.81016,Low Clearance,Allison,IA,50602,LC13,,"13 - 6 height clearance, Feb 2013: Bridge removed after arson damage. Could be rebuilt someday since it is part of a trail system.",low_13_6_pushpin,
108361,42.02453,-93.62024,Low Clearance,Ames,IA,50010,LC14,,14 - 0 height clearance,low_14_0_pushpin,
108362,42.028186299999994,-93.6322004,Low Clearance,Ames,IA,50010,LC13,,13 - 5 height clearance (136),low_13_5_pushpin,
108363,42.0302168,-93.63831309999999,Low Clearance,Ames,IA,50010,LC11,,11 - 6 height clearance (136),low_11_6_pushpin,
108373,42.089705,-94.995024,Low Clearance,Arcadia,IA,51430,LC14,,14 - 0 height clearance,low_14_0_pushpin,
108375,43.397164200000006,-94.513885,Low Clearance,Armstrong,IA,50514,LC13,,13 - 11 height clearance,low_13_11_pushpin,
108379,41.4164429,-95.0393656,Low Clearance,Atlantic,IA,50022,LC14,,14 - 4 height clearance,low_14_4_pushpin,
108392,42.0652,-93.87388,Low Clearance,Boone,IA,50036,LC13,,13 - 0 height clearance (136),low_13_0_pushpin,
108396,41.23639,-91.88911999999999,Low Clearance,Brighton,IA,52540,LC12,,12 - 4 height clearance (136),low_12_4_pushpin,
108408,42.09952,-94.9348,Low Clearance,Carroll,IA,51401,LC11,,11 - 0 height clearance (136),low_11_0_pushpin,
108419,41.956179999999996,-91.52671,Low Clearance,Cedar Rapids,IA,52403,LC14,,14 - 0 height clearance,low_14_0_pushpin,
108420,41.97294,-91.58034,Low Clearance,Cedar Rapids,IA,52403,LC12,,12 - 0 height clearance (136),low_12_0_pushpin,
108435,42.21911,-91.82342,Low Clearance,Center Point,IA,52213,LC14,,14 - 0 height clearance,low_14_0_pushpin,
108438,41.0093,-93.30096999999999,Low Clearance,Chariton,IA,50049,LC12,,12 - 0 height clearance (136),low_12_0_pushpin,
108439,41.01045,-93.30748,Low Clearance,Chariton,IA,50049,LC15,,15 - 6 height clearance,low_15_6_pushpin,
108440,41.01251,-93.301,Low Clearance,Chariton,IA,50049,LC11,,11 - 1 height clearance (136),low_11_1_pushpin,
108441,41.014357700000005,-93.3097396,Low Clearance,Chariton,IA,50049,LC13,,13 - 0 height clearance (136),low_13_0_pushpin,
108442,41.01495,-93.30099,Low Clearance,Chariton,IA,50049,LC11,,11 - 4 height clearance (136),low_11_4_pushpin,
108454,41.8329989,-90.1930109,Low Clearance,Clinton,IA,52732,LC13,,13 - 0 height clearance (136),low_13_0_pushpin,
108455,41.836194299999995,-90.1882738,Low Clearance,Clinton,IA,52732,LC14,,14 - 0 height clearance,low_14_0_pushpin,
108458,42.2792099,-91.5353603,Low Clearance,Coggon,IA,52218,LC14,,14 - 0 height clearance,low_14_0_pushpin,
108462,42.0189713,-93.3094185,Low Clearance,Colo,IA,50056,LC14,,14 - 1 height clearance,low_14_1_pushpin,
108463,42.02235,-93.30941999999999,Low Clearance,Colo,IA,50056,LC13,,13 - 8 height clearance,low_13_8_pushpin,
108468,40.76498,-93.31806999999999,Low Clearance,Corydon,IA,50060,LC13,,13 - 3 height clearance (136),low_13_3_pushpin,
108472,41.24661,-95.85370999999999,Low Clearance,Council Bluffs,IA,51501,LC13,,13 - 10 height clearance,low_13_10_pushpin,
108473,41.2805473,-95.77255670000001,Low Clearance,Council Bluffs,IA,51503,LC14,,14 - 2 height clearance,low_14_2_pushpin,
108474,41.2845466,-95.86357199999999,Low Clearance,Council Bluffs,IA,51501,LC8,,8 - 8 height clearance (136),low_8_8_pushpin,
108475,41.2845753,-95.8633705,Low Clearance,Council Bluffs,IA,51503,LC8,,8 - 8 height clearance (136),low_8_8_pushpin,
108476,41.289586299999996,-95.8598623,Low Clearance,Council Bluffs,IA,51503,LC9,,9 - 2 height clearance (136),low_9_2_pushpin,
108487,41.049569899999995,-94.3791703,Low Clearance,Creston,IA,50801,LC15,,15 - 5 height clearance,low_15_5_pushpin,
108488,41.054214,-94.372333,Low Clearance,Creston,IA,50801,LC13,,13 - 10 height clearance,low_13_10_pushpin,
108489,41.057139,-94.35160400000001,Low Clearance,Creston,IA,50801,LC11,,11 - 6 height clearance (136),low_11_6_pushpin,
108490,41.05794,-94.35158,Low Clearance,Creston,IA,50801,LC12,,12 - 4 height clearance (136),low_12_4_pushpin,
108491,41.058162200000005,-94.33684720000001,Low Clearance,Creston,IA,50801,LC13,,13 - 6 height clearance,low_13_6_pushpin,
108496,41.5210423,-90.568373,Low Clearance,Davenport,IA,52801,LC13,,13 - 11 height clearance,low_13_11_pushpin,
108497,41.5235,-90.57112,Low Clearance,Davenport,IA,52806,LC13,,13 - 0 height clearance (136),low_13_0_pushpin,
108498,41.52432,-90.57258,Low Clearance,Davenport,IA,52806,LC11,,11 - 3 height clearance (136),low_11_3_pushpin,
108499,41.52456,-90.57847,Low Clearance,Davenport,IA,52806,LC10,,10 - 1 height clearance (136),low_10_1_pushpin,
108500,41.52456,-90.57555,Low Clearance,Davenport,IA,52806,LC10,,10 - 0 height clearance (136),low_10_0_pushpin,
108501,41.52456,-90.57701999999999,Low Clearance,Davenport,IA,52806,LC11,,11 - 8 height clearance (136),low_11_8_pushpin,
108502,41.52456,-90.57406999999999,Low Clearance,Davenport,IA,52806,LC11,,11 - 8 height clearance (136),low_11_8_pushpin,
108504,41.52753,-90.60703000000001,Low Clearance,Davenport,IA,52806,LC13,,13 - 0 height clearance (136),low_13_0_pushpin,
108506,41.53478,-90.54708000000001,Low Clearance,Davenport,IA,52806,LC8,,8 - 10 height clearance (136),low_8_10_pushpin,
108507,41.558679999999995,-90.64891999999999,Low Clearance,Davenport,IA,52806,LC13,,13 - 10 height clearance,low_13_10_pushpin,
108538,41.5795,-93.66325,Low Clearance,Des Moines,IA,50312,LC11,,11 - 4 height clearance (136),low_11_4_pushpin,
108539,41.59523,-93.61843,Low Clearance,Des Moines,IA,50312,LC12,,12 - 4 height clearance (136),low_12_4_pushpin,
108540,41.60045,-93.58255,Low Clearance,Des Moines,IA,50312,LC13,,13 - 6 height clearance,low_13_6_pushpin,
108541,41.614059999999995,-93.62004,Low Clearance,Des Moines,IA,50312,LC8,,8 - 10 height clearance (136),low_8_10_pushpin,
108542,41.627759999999995,-93.58509000000001,Low Clearance,Des Moines,IA,50312,LC14,,14 - 5 height clearance,low_14_5_pushpin,
108543,41.64048,-93.62006,Low Clearance,Des Moines,IA,50312,LC13,,13 - 4 height clearance (136),low_13_4_pushpin,
108563,43.27199,-96.23779,Low Clearance,Doon,IA,51235,LC13,,13 - 4 height clearance (136),low_13_4_pushpin,
108572,42.4995391,-90.65340340000002,Low Clearance,Dubuque,IA,52001,LC10,,10 - 9 height clearance (136),low_10_9_pushpin,
108581,42.48545,-91.17389,Low Clearance,Dyersville,IA,52040,LC13,,13 - 6 height clearance,low_13_6_pushpin,
108597,41.0111876,-91.964912,Low Clearance,Fairfield,IA,52556,LC14,,14 - 1 height clearance,low_14_1_pushpin,
108605,42.49324,-94.1797,Low Clearance,Fort Dodge,IA,50501,LC12,,12 - 6 height clearance (136),low_12_6_pushpin,
108606,42.495171500000005,-94.1797421,Low Clearance,Fort Dodge,IA,50501,LC11,,11 - 8 height clearance (136),low_11_8_pushpin,
108607,42.49876,-94.18601,Low Clearance,Fort Dodge,IA,50501,LC11,,11 - 8 height clearance (136),low_11_8_pushpin,
108608,42.510709999999996,-94.20454000000001,Low Clearance,Fort Dodge,IA,50501,LC11,,11 - 6 height clearance (136),low_11_6_pushpin,
108613,41.0294865,-95.7472038,Low Clearance,Glenwood,IA,51534,LC12,,12 - 6 height clearance (136),low_12_6_pushpin,
108614,41.03825,-95.7413,Low Clearance,Glenwood,IA,51534,LC13,,13 - 4 height clearance (136),low_13_4_pushpin,
108615,41.042,-95.73625,Low Clearance,Glenwood,IA,51534,LC11,,11 - 1 height clearance (136),low_11_1_pushpin,
108616,41.0472261,-95.7235661,Low Clearance,Glenwood,IA,51534,LC13,,13 - 11 height clearance,low_13_11_pushpin,
108617,41.0520838,-95.6804333,Low Clearance,Glenwood,IA,51534,LC13,,13 - 9 height clearance,low_13_9_pushpin,
108618,41.0523065,-95.7124249,Low Clearance,Glenwood,IA,51534,LC14,,14 - 6 height clearance,low_14_6_pushpin,
108619,42.05409,-94.68303,Low Clearance,Glidden,IA,51443,LC14,,14 - 0 height clearance,low_14_0_pushpin,
108623,41.74031,-92.72163,Low Clearance,Grinnell,IA,50112,LC8,,8 - 4 height clearance (136),low_8_4_pushpin,
108624,41.78046,-92.72726999999999,Low Clearance,Grinnell,IA,50112,LC13,,13 - 7 height clearance,low_13_7_pushpin,
108636,43.220414,-96.1771755,Low Clearance,Hull,IA,51239,LC13,,13 - 9 height clearance,low_13_9_pushpin,
108637,43.22043789999999,-96.1770745,Low Clearance,Hull,IA,51239,LC13,,13 - 9 height clearance,low_13_9_pushpin,
108638,43.236307000000004,-96.177501,Low Clearance,Hull,IA,51239,LC13,,13 - 9 height clearance,low_13_9_pushpin,
108639,43.2363403,-96.1773941,Low Clearance,Hull,IA,51239,LC13,,13 - 9 height clearance,low_13_9_pushpin,
108649,41.66124,-91.53931999999999,Low Clearance,Iowa City,IA,52246,LC10,,10 - 4 height clearance (136),low_10_4_pushpin,
108650,41.66637,-91.5577,Low Clearance,Iowa City,IA,52246,LC13,,13 - 4 height clearance (136),low_13_4_pushpin,
108660,41.320867299999996,-93.0913103,Low Clearance,Knoxville,IA,50138,LC11,,11 - 6 height clearance (136),low_11_6_pushpin,
108665,41.58254,-90.38938,Low Clearance,Le Claire,IA,52753,LC14,,14 - 0 height clearance,low_14_0_pushpin,
108670,40.9960007,-91.76044509999998,Low Clearance,Lockridge,IA,52635,LC13,,13 - 0 height clearance (136),low_13_0_pushpin,
108674,43.06033,-91.46385,Low Clearance,Luana,IA,52156,LC12,,12 - 0 height clearance (136),low_12_0_pushpin,
108675,41.0155938,-95.6086193,Low Clearance,Malvern,IA,51551,LC13,,13 - 0 height clearance (136),low_13_0_pushpin,
108686,42.052279299999995,-92.95332109999998,Low Clearance,Marshalltown,IA,50158,LC12,,12 - 9 height clearance (136),low_12_9_pushpin,
108689,43.14242539999999,-93.20107440000001,Low Clearance,Mason City,IA,50401,LC14,,14 - 5 height clearance,low_14_5_pushpin,
108690,43.1428734,-93.2092544,Low Clearance,Mason City,IA,50401,LC13,,13 - 6 height clearance,low_13_6_pushpin,
108691,43.15186,-93.19014,Low Clearance,Mason City,IA,50401,LC12,,12 - 0 height clearance (136),low_12_0_pushpin,
108692,43.16059,-93.19649,Low Clearance,Mason City,IA,50401,LC12,,12 - 0 height clearance (136),low_12_0_pushpin,
108693,43.163509999999995,-93.19679000000001,Low Clearance,Mason City,IA,50401,LC13,,13 - 8 height clearance,low_13_8_pushpin,
108694,43.1971795,-93.2048804,Low Clearance,Mason City,IA,50401,LC13,,13 - 2 height clearance (136),low_13_2_pushpin,
108695,43.20552,-93.08866,Low Clearance,Mason City,IA,50401,LC13,,13 - 3 height clearance (136),low_13_3_pushpin,
108704,41.5178686,-94.3676431,Low Clearance,Menlo,IA,50164,LC14,,14 - 0 height clearance,low_14_0_pushpin,
108705,40.84802,-93.30891,Low Clearance,Millerton,IA,50165,LC13,,13 - 1 height clearance (136),low_13_1_pushpin,
108707,41.498459999999994,-95.74604000000001,Low Clearance,Missouri Valley,IA,51555,LC14,,14 - 0 height clearance,low_14_0_pushpin,
108708,41.4991956,-95.89520920000001,Low Clearance,Missouri Valley,IA,51555,LC11,,11 - 1 height clearance (136),low_11_1_pushpin,
108709,41.499252500000004,-95.8955277,Low Clearance,Missouri Valley,IA,51555,LC11,,11 - 0 height clearance in center with sides curving down sharply (136),low_11_0_pushpin,
108710,41.522290000000005,-95.88508,Low Clearance,Missouri Valley,IA,51555,LC12,,12 - 6 height clearance (136),low_12_6_pushpin,
108721,42.4460186,-94.2917387,Low Clearance,Moorland,IA,50566,LC14,,14 - 2 height clearance,low_14_2_pushpin,
108722,40.739846500000006,-92.7221962,Low Clearance,Moulton,IA,52572,LC14,,14 - 3 height clearance,low_14_3_pushpin,
108724,40.984561799999994,-91.6822224,Low Clearance,Mt Pleasant,IA,52641,LC12,,12 - 6 height clearance (136),low_12_6_pushpin,
108726,41.98425,-91.51386,Low Clearance,Mt Vernon,IA,52314,LC11,,11 - 6 height clearance (136),low_11_6_pushpin,
108733,42.0214671,-93.3904239,Low Clearance,Nevada,IA,50201,LC13,,13 - 6 height clearance,low_13_6_pushpin,
108734,42.025825,-93.46282,Low Clearance,Nevada,IA,50201,LC13,,13 - 2 height clearance (136),low_13_2_pushpin,
108735,42.025859999999994,-93.46279,Low Clearance,Nevada,IA,50201,LC13,,13 - 1 height clearance (136),low_13_1_pushpin,
108739,41.42261,-92.6451,Low Clearance,New Sharon,IA,50207,LC13,,13 - 8 height clearance,low_13_8_pushpin,
108742,41.699329999999996,-93.06834,Low Clearance,Newton,IA,50208,LC13,,13 - 10 height clearance,low_13_10_pushpin,
108752,42.67832,-91.91918000000001,Low Clearance,Oelwein,IA,50662,LC9,,9 - 9 height clearance (136),low_9_9_pushpin,
108765,41.0337843,-93.7715484,Low Clearance,Osceola,IA,50213,LC10,,10 - 10 height clearance (136),low_10_10_pushpin,
108774,41.00521,-92.37608,Low Clearance,Ottumwa,IA,52501,LC12,,12 - 0 height clearance (136),low_12_0_pushpin,
108775,41.0068,-92.38944000000001,Low Clearance,Ottumwa,IA,52501,LC12,,12 - 2 height clearance (136),low_12_0_pushpin,
108776,41.03195,-92.42974,Low Clearance,Ottumwa,IA,52501,LC12,,12 - 1 height clearance (136),low_12_1_pushpin,
108786,41.33488,-93.28182,Low Clearance,Pleasantville,IA,50225,LC12,,12 - 1 height clearance (136),low_12_1_pushpin,
108787,41.37104,-93.34581,Low Clearance,Pleasantville,IA,50225,LC13,,13 - 8 height clearance - Sep 2013: User reports signage says 14-5 but unable to verify thus far,low_13_8_pushpin,
108788,42.55050120000001,-94.6782382,Low Clearance,Pomeroy,IA,50575,LC14,,14 - 0 height clearance,low_14_0_pushpin,
108794,41.0022727,-95.2300621,Low Clearance,Red Oak,IA,51566,LC12,,12 - 6 height clearance (136),low_12_6_pushpin,
108795,41.0044903,-95.22309709999999,Low Clearance,Red Oak,IA,51566,LC13,,13 - 6 height clearance,low_13_6_pushpin,
108796,41.0067016,-95.21727109999999,Low Clearance,Red Oak,IA,51566,LC12,,12 - 6 height clearance (136),low_12_6_pushpin,
108802,42.399952,-94.60902790000002,Low Clearance,Rockwell City,IA,50579,LC14,,14 - 5 height clearance,low_14_5_pushpin,
108817,41.32956,-92.19393000000001,Low Clearance,Sigourney,IA,52591,LC15,,15 - 0 height clearance,low_15_0_pushpin,
108839,42.015406299999995,-93.1748132,Low Clearance,State Center,IA,50247,LC14,,14 - 5 height clearance,low_14_5_pushpin,
108881,41.30267,-91.69034,Low Clearance,Washington,IA,52353,LC13,,13 - 6 height clearance,low_13_6_pushpin,
108887,42.4983124,-92.3182165,Low Clearance,Waterloo,IA,50703,LC13,,13 - 10 height clearance,low_13_10_pushpin,
108888,42.5005,-92.32523,Low Clearance,Waterloo,IA,50702,LC14,,14 - 4 height clearance,low_14_4_pushpin,
108889,42.5027347,-92.30779100000001,Low Clearance,Waterloo,IA,50703,LC13,,13 - 5 height clearance (136),low_13_5_pushpin,
108900,42.469384399999996,-93.8138005,Low Clearance,Webster City,IA,50595,LC13,,13 - 8 height clearance,low_13_8_pushpin,
108901,42.471292600000005,-93.80701280000001,Low Clearance,Webster City,IA,50595,LC12,,12 - 5 height clearance (136),low_12_5_pushpin,
108926,42.80435,-112.81038000000001,Low Clearance,American Falls,ID,83211,LC14,,14 - 0 height clearance,low_14_0_pushpin,
108958,43.60102,-116.21306000000001,Low Clearance,Boise,ID,83706,LC14,,14 - 2 height clearance,low_14_2_pushpin,
109067,46.229459999999996,-116.45257,Low Clearance,Craigmont,ID,83523,LC10,,10 - 0 height clearance (136),low_10_0_pushpin,
109087,43.97922,-116.92332900000001,Low Clearance,Fruitland,ID,83619,LC12,,12 - 0 height clearance (136),low_12_0_pushpin,
109099,42.95882,-115.28193999999999,Low Clearance,Glenns Ferry,ID,83623,LC11,,11 - 8 height clearance (136),low_11_8_pushpin,
109152,43.483164,-112.044583,Low Clearance,Idaho Falls,ID,83402,LC13,,13 - 4 height clearance (136),low_13_4_pushpin,
109153,43.49409,-112.0362,Low Clearance,Idaho Falls,ID,83402,LC11,,11 - 6 height clearance (136),low_11_6_pushpin,
109154,43.49602,-112.03508000000001,Low Clearance,Idaho Falls,ID,83402,LC13,,13 - 8 height clearance,low_13_8_pushpin,
109198,46.449346999999996,-116.81053,Low Clearance,Lapwai,ID,83540,LC13,,13 - 10 height clearance,low_13_10_pushpin,
109202,42.123501,-112.21870200000001,Low Clearance,Lenore,ID,83541,LC13,,13 - 6 height clearance,low_13_6_pushpin,
109234,42.56706,-112.179381,Low Clearance,McCammon,ID,83250,LC13,,13 - 10 height clearance,low_13_10_pushpin,
109266,43.57468,-116.54867,Low Clearance,Nampa,ID,83687,LC11,,11 - 0 height clearance (136),low_11_0_pushpin,
109267,43.575520000000004,-116.54527,Low Clearance,Nampa,ID,83687,LC12,,12 - 0 height clearance (136),low_12_0_pushpin,
109268,43.577709999999996,-116.55309,Low Clearance,Nampa,ID,83687,LC13,,13 - 6 height clearance,low_13_6_pushpin,
109269,43.580090000000006,-116.56005,Low Clearance,Nampa,ID,83687,LC13,,13 - 6 height clearance,low_13_6_pushpin,
109270,43.58665,-116.54321999999999,Low Clearance,Nampa,ID,83687,LC14,,14 - 6 height clearance,low_14_6_pushpin,
109313,42.86306,-112.44911,Low Clearance,Pocatello,ID,83201,LC12,,12 - 2 height clearance (136),low_12_0_pushpin,
109314,42.887190000000004,-112.47643000000001,Low Clearance,Pocatello,ID,83201,LC13,,13 - 6 height clearance,low_13_6_pushpin,
109385,42.54557,-114.4406,Low Clearance,Twin Falls,ID,83301,LC13,,13 - 8 height clearance,low_13_8_pushpin,
109395,44.246916999999996,-116.98045900000001,Low Clearance,Weiser,ID,83762,LC14,,14 - 0 height clearance,low_14_0_pushpin,
109399,42.812529999999995,-114.77765,Low Clearance,Wendell,ID,83355,LC13,,13 - 10 height clearance,low_13_10_pushpin,
109409,47.38067,-116.87603999999999,Low Clearance,Worley,ID,83876,LC13,,13 - 10 height clearance,low_13_10_pushpin,
109410,47.40252,-116.91683,Low Clearance,Worley,ID,83876,LC13,,13 - 10 height clearance,low_13_10_pushpin,
109423,41.060829999999996,-88.85883000000001,Low Clearance,Ancona,IL,61311,LC13,,13 - 0 height clearance (136),low_13_0_pushpin,
109434,40.230259999999994,-90.95388,Low Clearance,Augusta,IL,62311,LC13,,13 - 9 height clearance,low_13_9_pushpin,
109436,41.74631,-88.33601,Low Clearance,Aurora,IL,60506,LC13,,13 - 9 height clearance,low_13_9_pushpin,
109437,41.754540000000006,-88.31533,Low Clearance,Aurora,IL,60506,LC13,,13 - 9 height clearance,low_13_9_pushpin,
109438,41.754862,-88.314646,Low Clearance,Aurora,IL,60506,LC12,,12 - 1 height clearance (136),low_12_1_pushpin,
109439,41.755722999999996,-88.313236,Low Clearance,Aurora,IL,60506,LC12,,12 - 1 height clearance (136),low_12_1_pushpin,
109440,41.756640000000004,-88.31199000000001,Low Clearance,Aurora,IL,60506,LC13,,13 - 1 height clearance (136),low_13_1_pushpin,
109441,41.757535,-88.310895,Low Clearance,Aurora,IL,60506,LC14,,14 - 1 height clearance,low_14_1_pushpin,
109442,41.75849,-88.30971,Low Clearance,Aurora,IL,60506,LC13,,13 - 10 height clearance,low_13_10_pushpin,
109443,41.78148,-88.23169,Low Clearance,Aurora,IL,60506,LC14,,14 - 0 height clearance,low_14_0_pushpin,
109500,41.14202,-87.86157,Low Clearance,Bradley,IL,60915,LC13,,13 - 1 height clearance (136),low_13_1_pushpin,
109509,41.85952,-87.86265,Low Clearance,Broadview,IL,60155,LC14,,14 - 1 height clearance,low_14_1_pushpin,
109510,37.12198,-88.626868,Low Clearance,Brookport,IL,62910,LC13,,13 - 0 height clearance (136),low_13_0_pushpin,
109519,42.131764000000004,-89.245512,Low Clearance,Byron,IL,61010,LC14,,14 - 8 height clearance,low_14_8_pushpin,
109520,42.370102,-88.966514,Low Clearance,Caledonia,IL,61011,LC14,,14 - 0 height clearance,low_14_0_pushpin,
109521,40.08676,-91.02946999999999,Low Clearance,Camp Point,IL,62320,LC13,,13 - 8 height clearance,low_13_8_pushpin,
109522,40.62304,-90.02972,Low Clearance,Canton,IL,61520,LC13,,13 - 10 height clearance,low_13_10_pushpin,
109528,39.239711,-89.92817099999999,Low Clearance,Carlinville,IL,62626,LC13,,13 - 10 height clearance,low_13_10_pushpin,
109529,39.278618,-89.797001,Low Clearance,Carlinville,IL,62626,LC13,,13 - 6 height clearance,low_13_6_pushpin,
109544,38.529296,-89.135814,Low Clearance,Centralia,IL,62801,LC14,,14 - 0 height clearance,low_14_0_pushpin,
109548,40.09445,-88.24472,Low Clearance,Champaign,IL,61820,LC11,,11 - 10 height clearance (136),low_11_10_pushpin,
109549,40.10266,-88.2434,Low Clearance,Champaign,IL,61820,LC11,,11 - 6 height clearance (136),low_11_6_pushpin,
109550,40.110209999999995,-88.24218,Low Clearance,Champaign,IL,61820,LC11,,11 - 10 height clearance (136),low_11_10_pushpin,
109551,40.112559999999995,-88.24181999999999,Low Clearance,Champaign,IL,61820,LC12,,12 - 6 height clearance (136),low_12_6_pushpin,
109552,40.11483,-88.24113,Low Clearance,Champaign,IL,61820,LC11,,11 - 10 height clearance (136),low_11_10_pushpin,
109553,40.11992,-88.23911,Low Clearance,Champaign,IL,61820,LC10,,10 - 6 height clearance (136),low_10_6_pushpin,
109573,41.651816,-87.61202,Low Clearance,Chicago,IL,,LC13,,13 - 7 EX height clearance,low_13_7_pushpin,
109574,41.659134,-87.618082,Low Clearance,Chicago,IL,,LC14,,14 - 4 height clearance,low_14_4_pushpin,
109575,41.663129,-87.59183900000001,Low Clearance,Chicago,IL,,LC14,,14 - 2 height clearance,low_14_2_pushpin,
109576,41.663734999999996,-87.591679,Low Clearance,Chicago,IL,,LC14,,14 - 2 height clearance,low_14_2_pushpin,
109577,41.683025,-87.62067900000001,Low Clearance,Chicago,IL,,LC12,,12 - 10 height clearance (136),low_12_10_pushpin,
109578,41.683994,-87.612374,Low Clearance,Chicago,IL,,LC11,,11 - 6 height clearance (136),low_11_6_pushpin,
109579,41.685444,-87.612095,Low Clearance,Chicago,IL,,LC13,,13 - 0 height clearance (136),low_13_0_pushpin,
109580,41.68913,-87.61129100000001,Low Clearance,Chicago,IL,,LC11,,11 - 8 height clearance (136),low_11_8_pushpin,
109581,41.692743,-87.6104,Low Clearance,Chicago,IL,,LC13,,13 - 0 height clearance (136),low_13_0_pushpin,
109582,41.696404,-87.609531,Low Clearance,Chicago,IL,,LC11,,11 - 8 height clearance (136),low_11_8_pushpin,
109583,41.700113,-87.608662,Low Clearance,Chicago,IL,,LC13,,13 - 5 EX height clearance (136),low_13_5_pushpin,
109584,41.703765999999995,-87.607825,Low Clearance,Chicago,IL,,LC11,,11 - 8 height clearance (136),low_11_8_pushpin,
109585,41.707427,-87.606999,Low Clearance,Chicago,IL,,LC13,,13 - 8 height clearance,low_13_8_pushpin,
109586,41.712913,-87.605808,Low Clearance,Chicago,IL,,LC13,,13 - 10 height clearance,low_13_10_pushpin,
109587,41.713753999999994,-87.534633,Low Clearance,Chicago,IL,,LC11,,11 - 8 height clearance (136),low_11_8_pushpin,
109588,41.714725,-87.536537,Low Clearance,Chicago,IL,,LC14,,14 - 2 height clearance,low_14_2_pushpin,
109589,41.714819,-87.53524499999999,Low Clearance,Chicago,IL,,LC14,,14 - 2 height clearance,low_14_2_pushpin,
109590,41.71638,-87.53771400000001,Low Clearance,Chicago,IL,,LC11,,11 - 6 height clearance (136),low_11_6_pushpin,
109591,41.720968,-87.54711,Low Clearance,Chicago,IL,,LC11,,11 - 10 height clearance (136),low_11_10_pushpin,
109592,41.722026,-87.603459,Low Clearance,Chicago,IL,,LC14,,14 - 0 height clearance,low_14_0_pushpin,
109593,41.722322999999996,-87.586786,Low Clearance,Chicago,IL,,LC13,,13 - 5 height clearance (136),low_13_5_pushpin,
109594,41.722651,-87.55973900000001,Low Clearance,Chicago,IL,,LC14,,14 - 4 height clearance,low_14_4_pushpin,
109595,41.723236,-87.585166,Low Clearance,Chicago,IL,,LC14,,14 - 4 height clearance,low_14_4_pushpin,
109596,41.723244,-87.594768,Low Clearance,Chicago,IL,,LC13,,13 - 6 EX height clearance,low_13_6_pushpin,
109597,41.72332,-87.57536400000001,Low Clearance,Chicago,IL,,LC11,,11 - 6 height clearance (136),low_11_6_pushpin,
109598,41.72334,-87.604596,Low Clearance,Chicago,IL,,LC13,,13 - 7 EX height clearance,low_13_7_pushpin,
109599,41.72338,-87.570511,Low Clearance,Chicago,IL,,LC11,,11 - 10 height clearance (136),low_11_10_pushpin,
109600,41.723636,-87.55113399999999,Low Clearance,Chicago,IL,,LC14,,14 - 4 height clearance,low_14_4_pushpin,
109601,41.723756,-87.553849,Low Clearance,Chicago,IL,,LC13,,13 - 5 EX height clearance (136),low_13_5_pushpin,
109602,41.723772,-87.556638,Low Clearance,Chicago,IL,,LC11,,11 - 10 height clearance (136),low_11_10_pushpin,
109603,41.723812,-87.54704699999999,Low Clearance,Chicago,IL,,LC14,,14 - 4 height clearance,low_14_4_pushpin,
109604,41.7239,-87.56075799999999,Low Clearance,Chicago,IL,,LC11,,11 - 10 height clearance (136),low_11_10_pushpin,
109605,41.725526,-87.55113399999999,Low Clearance,Chicago,IL,,LC13,,13 - 6 EX height clearance,low_13_6_pushpin,
109606,41.725742,-87.602815,Low Clearance,Chicago,IL,,LC13,,13 - 0 height clearance (136),low_13_0_pushpin,
109607,41.725926,-87.551156,Low Clearance,Chicago,IL,,LC13,,13 - 6 EX height clearance,low_13_6_pushpin,
109608,41.727095,-87.553248,Low Clearance,Chicago,IL,,LC13,,13 - 0 height clearance (136),low_13_0_pushpin,
109609,41.727928000000006,-87.614295,Low Clearance,Chicago,IL,,LC13,,13 - 0 height clearance (136),low_13_0_pushpin,
109610,41.728184000000006,-87.554997,Low Clearance,Chicago,IL,,LC14,,14 - 0 height clearance,low_14_0_pushpin,
109611,41.729409000000004,-87.601935,Low Clearance,Chicago,IL,,LC13,,13 - 0 height clearance (136),low_13_0_pushpin,
109612,41.729617,-87.61917700000001,Low Clearance,Chicago,IL,,LC13,,13 - 0 height clearance (136),low_13_0_pushpin,
109613,41.730066,-87.624015,Low Clearance,Chicago,IL,,LC12,,12 - 10 height clearance (136),low_12_10_pushpin,
109614,41.730114,-87.624004,Low Clearance,Chicago,IL,,LC12,,12 - 10 height clearance (136),low_12_10_pushpin,
109615,41.731921,-87.56116999999999,Low Clearance,Chicago,IL,,LC11,,11 - 8 height clearance (136),low_11_8_pushpin,
109616,41.732147999999995,-87.648348,Low Clearance,Chicago,IL,,LC11,,11 - 4 height clearance (136),low_11_4_pushpin,
109617,41.732532,-87.647082,Low Clearance,Chicago,IL,,LC13,,13 - 0 height clearance (136),low_13_0_pushpin,
109618,41.732876,-87.646406,Low Clearance,Chicago,IL,,LC14,,14 - 4 height clearance,low_14_4_pushpin,
109619,41.734277,-87.645527,Low Clearance,Chicago,IL,,LC11,,11 - 10 height clearance (136),low_11_10_pushpin,
109620,41.734357,-87.634047,Low Clearance,Chicago,IL,,LC11,,11 - 8 height clearance (136),low_11_8_pushpin,
109621,41.734381,-87.634004,Low Clearance,Chicago,IL,,LC11,,11 - 8 height clearance (136),low_11_8_pushpin,
109622,41.734469,-87.563547,Low Clearance,Chicago,IL,,LC11,,11 - 10 height clearance (136),low_11_10_pushpin,
109623,41.736039,-87.64521500000001,Low Clearance,Chicago,IL,,LC12,,12 - 10 height clearance (136),low_12_10_pushpin,
109624,41.736327,-87.632577,Low Clearance,Chicago,IL,,LC13,,13 - 7 EX height clearance,low_13_7_pushpin,
109625,41.736727,-87.600476,Low Clearance,Chicago,IL,,LC14,,14 - 2 height clearance,low_14_2_pushpin,
109626,41.736847,-87.59530500000001,Low Clearance,Chicago,IL,,LC14,,14 - 0 height clearance,low_14_0_pushpin,
109627,41.736907,-87.644474,Low Clearance,Chicago,IL,,LC12,,12 - 8 height clearance (136),low_12_8_pushpin,
109628,41.737151000000004,-87.56815,Low Clearance,Chicago,IL,,LC13,,13 - 7 EX height clearance,low_13_7_pushpin,
109629,41.737159000000005,-87.567356,Low Clearance,Chicago,IL,,LC13,,13 - 7 EX height clearance,low_13_7_pushpin,
109630,41.738985,-87.57023199999999,Low Clearance,Chicago,IL,,LC11,,11 - 10 height clearance (136),low_11_10_pushpin,
109631,41.739105,-87.643713,Low Clearance,Chicago,IL,,LC13,,13 - 0 height clearance (136),low_13_0_pushpin,
109632,41.74073,-87.573246,Low Clearance,Chicago,IL,,LC11,,11 - 8 height clearance (136),low_11_8_pushpin,
109633,41.740866,-87.572581,Low Clearance,Chicago,IL,,LC11,,11 - 8 height clearance (136),low_11_8_pushpin,
109634,41.742379,-87.637458,Low Clearance,Chicago,IL,,LC14,,14 - 0 height clearance,low_14_0_pushpin,
109635,41.742731,-87.687272,Low Clearance,Chicago,IL,,LC13,,13 - 6 height clearance,low_13_6_pushpin,
109636,41.7433,-87.57582099999999,Low Clearance,Chicago,IL,,LC11,,11 - 6 height clearance (136),low_11_6_pushpin,
109637,41.743428,-87.642201,Low Clearance,Chicago,IL,,LC11,,11 - 10 height clearance (136),low_11_10_pushpin,
109638,41.743644,-87.636364,Low Clearance,Chicago,IL,,LC14,,14 - 0 height clearance,low_14_0_pushpin,
109639,41.744044,-87.598652,Low Clearance,Chicago,IL,,LC13,,13 - 2 height clearance (136),low_13_2_pushpin,
109640,41.744476,-87.682799,Low Clearance,Chicago,IL,,LC13,,13 - 6 height clearance,low_13_6_pushpin,
109641,41.745893,-87.598276,Low Clearance,Chicago,IL,,LC11,,11 - 4 height clearance (136),low_11_4_pushpin,
109642,41.746614,-87.581078,Low Clearance,Chicago,IL,,LC11,,11 - 8 height clearance (136),low_11_8_pushpin,
109643,41.747046000000005,-87.640688,Low Clearance,Chicago,IL,,LC13,,13 - 8 height clearance,low_13_8_pushpin,
109644,41.747085999999996,-87.638102,Low Clearance,Chicago,IL,,LC13,,13 - 8 height clearance,low_13_8_pushpin,
109645,41.747741999999995,-87.583417,Low Clearance,Chicago,IL,,LC11,,11 - 10 height clearance (136),low_11_10_pushpin,
109646,41.748871,-87.640023,Low Clearance,Chicago,IL,,LC11,,11 - 8 height clearance (136),low_11_8_pushpin,
109647,41.748903000000006,-87.638778,Low Clearance,Chicago,IL,,LC11,,11 - 8 height clearance (136),low_11_8_pushpin,
109648,41.749455,-87.702368,Low Clearance,Chicago,IL,,LC13,,13 - 6 height clearance,low_13_6_pushpin,
109649,41.749559000000005,-87.585552,Low Clearance,Chicago,IL,,LC14,,14 - 2 height clearance,low_14_2_pushpin,
109650,41.749824,-87.701778,Low Clearance,Chicago,IL,,LC13,,13 - 6 height clearance,low_13_6_pushpin,
109651,41.750184000000004,-87.678271,Low Clearance,Chicago,IL,,LC13,,13 - 0 height clearance (136),low_13_0_pushpin,
109652,41.750696000000005,-87.639143,Low Clearance,Chicago,IL,,LC13,,13 - 10 height clearance,low_13_10_pushpin,
109653,41.751376,-87.597032,Low Clearance,Chicago,IL,,LC12,,12 - 10 height clearance (136),low_12_10_pushpin,
109654,41.751496,-87.587451,Low Clearance,Chicago,IL,,LC14,,14 - 2 height clearance,low_14_2_pushpin,
109655,41.752528999999996,-87.639475,Low Clearance,Chicago,IL,,LC11,,11 - 8 height clearance (136),low_11_8_pushpin,
109656,41.752545,-87.638724,Low Clearance,Chicago,IL,,LC11,,11 - 8 height clearance (136),low_11_8_pushpin,
109657,41.753384999999994,-87.722023,Low Clearance,Chicago,IL,,LC13,,13 - 10 height clearance,low_13_10_pushpin,
109658,41.753706,-87.591174,Low Clearance,Chicago,IL,,LC12,,12 - 2 height clearance (136),low_12_0_pushpin,
109659,41.756211,-87.63725500000001,Low Clearance,Chicago,IL,,LC11,,11 - 6 height clearance (136),low_11_6_pushpin,
109660,41.756851,-87.59445699999999,Low Clearance,Chicago,IL,,LC11,,11 - 4 height clearance (136),low_11_4_pushpin,
109661,41.756859000000006,-87.594876,Low Clearance,Chicago,IL,,LC11,,11 - 4 height clearance (136),low_11_4_pushpin,
109662,41.757531,-87.68305600000001,Low Clearance,Chicago,IL,,LC14,,14 - 0 height clearance,low_14_0_pushpin,
109663,41.757603,-87.673357,Low Clearance,Chicago,IL,,LC13,,13 - 0 height clearance (136),low_13_0_pushpin,
109664,41.757827,-87.658787,Low Clearance,Chicago,IL,,LC11,,11 - 8 height clearance (136),low_11_8_pushpin,
109665,41.757895,-87.66362,Low Clearance,Chicago,IL,,LC13,,13 - 10 height clearance,low_13_10_pushpin,
109666,41.757931,-87.653947,Low Clearance,Chicago,IL,,LC12,,12 - 8 height clearance (136),low_12_8_pushpin,
109667,41.757931,-87.649067,Low Clearance,Chicago,IL,,LC14,,14 - 4 height clearance,low_14_4_pushpin,
109668,41.757964,-87.641793,Low Clearance,Chicago,IL,,LC11,,11 - 10 height clearance (136),low_11_10_pushpin,
109669,41.757981,-87.65150200000001,Low Clearance,Chicago,IL,,LC13,,13 - 8 height clearance,low_13_8_pushpin,
109670,41.757988,-87.646642,Low Clearance,Chicago,IL,,LC12,,12 - 0 height clearance (136),low_12_0_pushpin,
109671,41.757988,-87.644207,Low Clearance,Chicago,IL,,LC13,,13 - 10 height clearance,low_13_10_pushpin,
109672,41.758179999999996,-87.64178199999999,Low Clearance,Chicago,IL,,LC11,,11 - 10 height clearance (136),low_11_10_pushpin,
109673,41.758444,-87.59527299999999,Low Clearance,Chicago,IL,,LC13,,13 - 2 height clearance (136),low_13_2_pushpin,
109674,41.758684,-87.59689300000001,Low Clearance,Chicago,IL,,LC13,,13 - 2 height clearance (136),low_13_2_pushpin,
109675,41.758708,-87.597494,Low Clearance,Chicago,IL,,LC13,,13 - 10 height clearance,low_13_10_pushpin,
109676,41.75874,-87.59536899999999,Low Clearance,Chicago,IL,,LC13,,13 - 6 EX height clearance,low_13_6_pushpin,
109677,41.759228,-87.598084,Low Clearance,Chicago,IL,,LC11,,11 - 6 height clearance (136),low_11_6_pushpin,
109678,41.759812,-87.639572,Low Clearance,Chicago,IL,,LC12,,12 - 10 height clearance (136),low_12_10_pushpin,
109679,41.759884,-87.635999,Low Clearance,Chicago,IL,,LC13,,13 - 0 height clearance (136),low_13_0_pushpin,
109680,41.762269,-87.6023,Low Clearance,Chicago,IL,,LC12,,12 - 0 height clearance (136),low_12_0_pushpin,
109681,41.762341,-87.594597,Low Clearance,Chicago,IL,,LC11,,11 - 10 height clearance (136),low_11_10_pushpin,
109682,41.76347,-87.6394,Low Clearance,Chicago,IL,,LC11,,11 - 6 height clearance (136),low_11_6_pushpin,
109683,41.763542,-87.634626,Low Clearance,Chicago,IL,,LC12,,12 - 6 height clearance (136),low_12_6_pushpin,
109684,41.76423,-87.5942,Low Clearance,Chicago,IL,,LC11,,11 - 10 height clearance (136),low_11_10_pushpin,
109685,41.764509999999994,-87.605487,Low Clearance,Chicago,IL,,LC13,,13 - 0 height clearance (136),low_13_0_pushpin,
109686,41.764862,-87.605519,Low Clearance,Chicago,IL,,LC13,,13 - 0 height clearance (136),low_13_0_pushpin,
109687,41.765262,-87.639486,Low Clearance,Chicago,IL,,LC11,,11 - 10 height clearance (136),low_11_10_pushpin,
109688,41.765358,-87.63391800000001,Low Clearance,Chicago,IL,,LC14,,14 - 2 height clearance,low_14_2_pushpin,
109689,41.765838,-87.606989,Low Clearance,Chicago,IL,,LC13,,13 - 7 EX height clearance,low_13_7_pushpin,
109690,41.765838,-87.606753,Low Clearance,Chicago,IL,,LC13,,13 - 7 EX height clearance,low_13_7_pushpin,
109691,41.76603,-87.593696,Low Clearance,Chicago,IL,,LC11,,11 - 8 height clearance (136),low_11_8_pushpin,
109692,41.767111,-87.639475,Low Clearance,Chicago,IL,,LC11,,11 - 10 height clearance (136),low_11_10_pushpin,
109693,41.767199,-87.633285,Low Clearance,Chicago,IL,,LC13,,13 - 0 height clearance (136),low_13_0_pushpin,
109694,41.767343,-87.610422,Low Clearance,Chicago,IL,,LC12,,12 - 2 height clearance (136),low_12_0_pushpin,
109695,41.767839,-87.59344899999999,Low Clearance,Chicago,IL,,LC11,,11 - 10 height clearance (136),low_11_10_pushpin,
109696,41.768375,-87.67874300000001,Low Clearance,Chicago,IL,,LC12,,12 - 0 height clearance (136),low_12_0_pushpin,
109697,41.768919,-87.639572,Low Clearance,Chicago,IL,,LC14,,14 - 4 height clearance,low_14_4_pushpin,
109698,41.769023,-87.632566,Low Clearance,Chicago,IL,,LC14,,14 - 6 height clearance,low_14_6_pushpin,
109699,41.770078999999996,-87.612836,Low Clearance,Chicago,IL,,LC13,,13 - 10 height clearance,low_13_10_pushpin,
109700,41.770215,-87.67882900000001,Low Clearance,Chicago,IL,,LC11,,11 - 10 height clearance (136),low_11_10_pushpin,
109701,41.770720000000004,-87.63949699999999,Low Clearance,Chicago,IL,,LC11,,11 - 10 height clearance (136),low_11_10_pushpin,
109702,41.771526,-87.712753,Low Clearance,Chicago,IL,,LC13,,13 - 0 height clearance (136),low_13_0_pushpin,
109703,41.772024,-87.615443,Low Clearance,Chicago,IL,,LC12,,12 - 6 height clearance (136),low_12_6_pushpin,
109704,41.772032,-87.67882900000001,Low Clearance,Chicago,IL,,LC12,,12 - 10 height clearance (136),low_12_10_pushpin,
109705,41.772568,-87.63954,Low Clearance,Chicago,IL,,LC11,,11 - 10 height clearance (136),low_11_10_pushpin,
109706,41.77268,-87.631139,Low Clearance,Chicago,IL,,LC14,,14 - 0 height clearance,low_14_0_pushpin,
109707,41.77292,-87.617878,Low Clearance,Chicago,IL,,LC11,,11 - 10 height clearance (136),low_11_10_pushpin,
109708,41.77328,-87.592022,Low Clearance,Chicago,IL,,LC13,,13 - 6 height clearance,low_13_6_pushpin,
109709,41.773368,-87.712807,Low Clearance,Chicago,IL,,LC13,,13 - 7 EX height clearance,low_13_7_pushpin,
109710,41.774344,-87.639636,Low Clearance,Chicago,IL,,LC11,,11 - 10 height clearance (136),low_11_10_pushpin,
109711,41.774496,-87.630613,Low Clearance,Chicago,IL,,LC11,,11 - 10 height clearance (136),low_11_10_pushpin,
109712,41.775096000000005,-87.625303,Low Clearance,Chicago,IL,,LC14,,14 - 2 height clearance,low_14_2_pushpin,
109713,41.775112,-87.591625,Low Clearance,Chicago,IL,,LC12,,12 - 8 height clearance (136),low_12_8_pushpin,
109714,41.775192,-87.712786,Low Clearance,Chicago,IL,,LC13,,13 - 5 EX height clearance (136),low_13_5_pushpin,
109715,41.775664,-87.678904,Low Clearance,Chicago,IL,,LC13,,13 - 0 height clearance (136),low_13_0_pushpin,
109716,41.776185,-87.639658,Low Clearance,Chicago,IL,,LC11,,11 - 8 height clearance (136),low_11_8_pushpin,
109717,41.776209,-87.630066,Low Clearance,Chicago,IL,,LC13,,13 - 7 EX height clearance,low_13_7_pushpin,
109718,41.776928999999996,-87.591217,Low Clearance,Chicago,IL,,LC13,,13 - 0 height clearance (136),low_13_0_pushpin,
109719,41.776984999999996,-87.712882,Low Clearance,Chicago,IL,,LC13,,13 - 2 height clearance (136),low_13_2_pushpin,
109720,41.778001,-87.63972199999999,Low Clearance,Chicago,IL,,LC11,,11 - 8 height clearance (136),low_11_8_pushpin,
109721,41.778345,-87.62533499999999,Low Clearance,Chicago,IL,,LC14,,14 - 2 height clearance,low_14_2_pushpin,
109722,41.778753,-87.590906,Low Clearance,Chicago,IL,,LC12,,12 - 8 height clearance (136),low_12_8_pushpin,
109723,41.778825,-87.712936,Low Clearance,Chicago,IL,,LC13,,13 - 0 height clearance (136),low_13_0_pushpin,
109724,41.778897,-87.666652,Low Clearance,Chicago,IL,,LC14,,14 - 4 height clearance,low_14_4_pushpin,
109725,41.778945,-87.659335,Low Clearance,Chicago,IL,,LC13,,13 - 8 height clearance,low_13_8_pushpin,
109726,41.779131,-87.652059,Low Clearance,Chicago,IL,,LC13,,13 - 10 height clearance,low_13_10_pushpin,
109727,41.779137,-87.653262,Low Clearance,Chicago,IL,,LC14,,14 - 0 height clearance,low_14_0_pushpin,
109728,41.779145,-87.650816,Low Clearance,Chicago,IL,,LC14,,14 - 2 height clearance,low_14_2_pushpin,
109729,41.779233000000005,-87.67871099999999,Low Clearance,Chicago,IL,,LC14,,14 - 2 height clearance,low_14_2_pushpin,
109730,41.779241,-87.678904,Low Clearance,Chicago,IL,,LC14,,14 - 2 height clearance,low_14_2_pushpin,
109731,41.779849,-87.639776,Low Clearance,Chicago,IL,,LC14,,14 - 2 height clearance,low_14_2_pushpin,
109732,41.780009,-87.628629,Low Clearance,Chicago,IL,,LC13,,13 - 10 height clearance,low_13_10_pushpin,
109733,41.780017,-87.62821,Low Clearance,Chicago,IL,,LC13,,13 - 10 height clearance,low_13_10_pushpin,
109734,41.780033,-87.627298,Low Clearance,Chicago,IL,,LC13,,13 - 10 height clearance,low_13_10_pushpin,
109735,41.780049,-87.625936,Low Clearance,Chicago,IL,,LC13,,13 - 10 height clearance,low_13_10_pushpin,
109736,41.780153000000006,-87.618104,Low Clearance,Chicago,IL,,LC13,,13 - 6 height clearance,low_13_6_pushpin,
109737,41.780161,-87.617235,Low Clearance,Chicago,IL,,LC13,,"13 - 6 NB, 13 - 6 E-W height clearance",low_13_6_pushpin,
109738,41.780241,-87.614402,Low Clearance,Chicago,IL,,LC13,,"13 - 6 E-W, 14 - 0 N-S height clearance",low_13_6_pushpin,
109739,41.780273,-87.612031,Low Clearance,Chicago,IL,,LC13,,"13 - 6 E-W, 13 - 10 SB height clearance",low_13_6_pushpin,
109740,41.7803,-87.615635,Low Clearance,Chicago,IL,,LC13,,"13 - 6 E-W, 14 - 2 N-S height clearance",low_13_6_pushpin,
109741,41.780305,-87.613201,Low Clearance,Chicago,IL,,LC13,,"13 - 10 NB, 13 - 6 E-W height clearance",low_13_10_pushpin,
109742,41.780313,-87.61079699999999,Low Clearance,Chicago,IL,,LC13,,"13 - 6 NB, 13 - 6 E-W height clearance",low_13_6_pushpin,
109743,41.780328999999995,-87.609596,Low Clearance,Chicago,IL,,LC13,,13 - 6 EX height clearance,low_13_6_pushpin,
109744,41.780353000000005,-87.608362,Low Clearance,Chicago,IL,,LC13,,"13 - 6 E-W, 13 - 8 SB height clearance",low_13_6_pushpin,
109745,41.780384999999995,-87.607192,Low Clearance,Chicago,IL,,LC13,,"13 - 7 NB, 13 - 6 E-W height clearance",low_13_7_pushpin,
109746,41.780393,-87.605926,Low Clearance,Chicago,IL,,LC13,,"13 - 6 N-S, 13 - 0 E-W height clearance",low_13_6_pushpin,
109747,41.780569,-87.590402,Low Clearance,Chicago,IL,,LC14,,14 - 0 height clearance,low_14_0_pushpin,
109748,41.780657,-87.712936,Low Clearance,Chicago,IL,,LC13,,13 - 6 EX height clearance,low_13_6_pushpin,
109749,41.780729,-87.639787,Low Clearance,Chicago,IL,,LC11,,11 - 10 height clearance (136),low_11_10_pushpin,
109750,41.780753000000004,-87.630174,Low Clearance,Chicago,IL,,LC14,,14 - 0 height clearance,low_14_0_pushpin,
109751,41.781641,-87.631858,Low Clearance,Chicago,IL,,LC14,,14 - 4 height clearance,low_14_4_pushpin,
109752,41.781673,-87.63984,Low Clearance,Chicago,IL,,LC11,,11 - 10 height clearance (136),low_11_10_pushpin,
109753,41.782033,-87.63265200000001,Low Clearance,Chicago,IL,,LC11,,11 - 2 height clearance (136),low_11_2_pushpin,
109754,41.782449,-87.71312900000001,Low Clearance,Chicago,IL,,LC13,,13 - 2 height clearance (136),low_13_2_pushpin,
109755,41.782561,-87.633478,Low Clearance,Chicago,IL,,LC11,,11 - 6 height clearance (136),low_11_6_pushpin,
109756,41.783161,-87.627802,Low Clearance,Chicago,IL,,LC13,,13 - 2 height clearance (136),low_13_2_pushpin,
109757,41.783449,-87.639787,Low Clearance,Chicago,IL,,LC11,,11 - 8 height clearance (136),low_11_8_pushpin,
109758,41.783473,-87.639937,Low Clearance,Chicago,IL,,LC11,,11 - 10 height clearance (136),low_11_10_pushpin,
109759,41.783537,-87.63466899999999,Low Clearance,Chicago,IL,,LC12,,12 - 10 height clearance (136),low_12_10_pushpin,
109760,41.783840999999995,-87.618071,Low Clearance,Chicago,IL,,LC14,,14 - 4 height clearance,low_14_4_pushpin,
109761,41.784281,-87.71312900000001,Low Clearance,Chicago,IL,,LC13,,13 - 2 height clearance (136),low_13_2_pushpin,
109762,41.784449,-87.63512,Low Clearance,Chicago,IL,,LC11,,11 - 2 height clearance (136),low_11_2_pushpin,
109763,41.784681,-87.639969,Low Clearance,Chicago,IL,,LC11,,11 - 8 height clearance (136),low_11_8_pushpin,
109764,41.785337,-87.635152,Low Clearance,Chicago,IL,,LC11,,11 - 4 height clearance (136),low_11_4_pushpin,
109765,41.785481,-87.628221,Low Clearance,Chicago,IL,,LC12,,12 - 4 height clearance (136),low_12_4_pushpin,
109766,41.786113,-87.71314,Low Clearance,Chicago,IL,,LC13,,13 - 10 height clearance,low_13_10_pushpin,
109767,41.786137,-87.589157,Low Clearance,Chicago,IL,,LC12,,12 - 2 height clearance (136),low_12_0_pushpin,
109768,41.786345000000004,-87.63194399999999,Low Clearance,Chicago,IL,,LC14,,14 - 2 height clearance,low_14_2_pushpin,
109769,41.786561,-87.679988,Low Clearance,Chicago,IL,,LC14,,14 - 2 height clearance,low_14_2_pushpin,
109770,41.786929,-87.622266,Low Clearance,Chicago,IL,,LC14,,14 - 0 height clearance,low_14_0_pushpin,
109771,41.786969,-87.619026,Low Clearance,Chicago,IL,,LC14,,14 - 4 height clearance,low_14_4_pushpin,
109772,41.787113,-87.639915,Low Clearance,Chicago,IL,,LC13,,13 - 8 height clearance,low_13_8_pushpin,
109773,41.787193,-87.635238,Low Clearance,Chicago,IL,,LC13,,13 - 8 height clearance,low_13_8_pushpin,
109774,41.787321,-87.62830699999999,Low Clearance,Chicago,IL,,LC14,,14 - 0 height clearance,low_14_0_pushpin,
109775,41.787601,-87.67411899999999,Low Clearance,Chicago,IL,,LC13,,13 - 0 height clearance (136),low_13_0_pushpin,
109776,41.787633,-87.672928,Low Clearance,Chicago,IL,,LC11,,11 - 8 height clearance (136),low_11_8_pushpin,
109777,41.787649,-87.671705,Low Clearance,Chicago,IL,,LC12,,12 - 0 height clearance (136),low_12_0_pushpin,
109778,41.787665000000004,-87.67049300000001,Low Clearance,Chicago,IL,,LC12,,12 - 2 height clearance (136),low_12_0_pushpin,
109779,41.787696999999994,-87.669291,Low Clearance,Chicago,IL,,LC13,,13 - 0 height clearance (136),low_13_0_pushpin,
109780,41.787721000000005,-87.666855,Low Clearance,Chicago,IL,,LC13,,13 - 8 height clearance,low_13_8_pushpin,
109781,41.787769,-87.660804,Low Clearance,Chicago,IL,,LC12,,12 - 2 height clearance (136),low_12_0_pushpin,
109782,41.787779,-87.66443000000001,Low Clearance,Chicago,IL,,LC13,,13 - 10 height clearance,low_13_10_pushpin,
109783,41.787793,-87.663186,Low Clearance,Chicago,IL,,LC13,,13 - 2 height clearance (136),low_13_2_pushpin,
109784,41.787833,-87.65839,Low Clearance,Chicago,IL,,LC12,,12 - 10 height clearance (136),low_12_10_pushpin,
109785,41.787841,-87.66199499999999,Low Clearance,Chicago,IL,,LC13,,13 - 6 height clearance,low_13_6_pushpin,
109786,41.787865000000004,-87.657135,Low Clearance,Chicago,IL,,LC12,,12 - 10 height clearance (136),low_12_10_pushpin,
109787,41.787873,-87.588803,Low Clearance,Chicago,IL,,LC11,,11 - 10 height clearance (136),low_11_10_pushpin,
109788,41.787873,-87.65961300000001,Low Clearance,Chicago,IL,,LC12,,12 - 6 height clearance (136),low_12_6_pushpin,
109789,41.787873,-87.65471,Low Clearance,Chicago,IL,,LC13,,13 - 0 height clearance (136),low_13_0_pushpin,
